place_id,name,category,business_type,rating,review_count,price_level,price_level_raw,address,district,latitude,longitude,business_status,types,search_query,crawl_date
ChIJmY-JGj-NaDUREWEsi5cjUjw,미포집 해운대본점,해산물 요리 전문식당,음식점,4.5,1869,3,PRICE_LEVEL_EXPENSIVE,대한민국 부산광역시 해운대구 달맞이길62번길 3,해운대구,35.160751,129.1714544,OPERATIONAL,"seafood_restaurant,restaurant,food,point_of_interest,establishment",해운대구 음식점,2026-03-16
ChIJ-0oV3V2NaDURrn4n89y_AG0,밀양순대돼지국밥 해운대점,한식당,음식점,4,4167,2,PRICE_LEVEL_MODERATE,대한민국 부산광역시 해운대구 구남로 28,해운대구,35.1615822,129.1604592,OPERATIONAL,"korean_restaurant,restaurant,food,point_of_interest,establishment",해운대구 음식점,2026-03-16
ChIJecTzBkWNaDURHnlmBE4_y3A,味贊王鹽烤肉 海雲台店,한식당,음식점,4.3,166,,,대한민국 부산광역시 해운대구 해운대로608번길 46,해운대구,35.1610437,129.1590339,OPERATIONAL,"korean_restaurant,restaurant,food,point_of_interest,establishment",해운대구 음식점,2026-03-16
ChIJd75ph62NaDURLyQX_LmbvWs,부산바다샌드,디저트 전문 레스토랑,음식점,4.2,151,,,대한민국 부산광역시 해운대구 우동1로20번길 21 1층,해운대구,35.1642533,129.1577802,OPERATIONAL,"dessert_restaurant,restaurant,food,point_of_interest,establishment",해운대구 음식점,2026-03-16
ChIJ5xwvxl2NaDURp-2al86xb8E,개미집 국제시장본점직영점,한식당,음식점,3.8,4072,2,PRICE_LEVEL_MODERATE,대한민국 부산광역시 해운대구 구남로 34,해운대구,35.1611033,129.160662,OPERATIONAL,"korean_restaurant,restaurant,food,point_of_interest,establishment",해운대구 음식점,2026-03-16
ChIJFb7Ke16NaDURO0tdP7zkFtw,오반장,한식 고기구이 레스토랑,음식점,4,2234,2,PRICE_LEVEL_MODERATE,대한민국 부산광역시 해운대구 구남로24번길 20,해운대구,35.1615099,129.15916750000002,OPERATIONAL,"korean_barbecue_restaurant,korean_restaurant,restaurant,food,point_of_interest,establishment",해운대구 음식점,2026-03-16
ChIJb6ju4GeNaDURuR1LsbcI5lw,금수복국 해운대본점,일본 음식점,음식점,4.2,7589,2,PRICE_LEVEL_MODERATE,대한민국 부산광역시 해운대구 중동1로43번길 23,해운대구,35.162420499999996,129.16450609999998,OPERATIONAL,"japanese_restaurant,restaurant,food,point_of_interest,establishment",해운대구 음식점,2026-03-16
ChIJXfgfJGqNaDURw_mUTgR-3Fs,바다마루전복죽 미포본점,한식당,음식점,4.6,507,2,PRICE_LEVEL_MODERATE,대한민국 부산광역시 해운대구 중동 971,해운대구,35.160578799999996,129.17124099999998,OPERATIONAL,"korean_restaurant,restaurant,food,point_of_interest,establishment",해운대구 음식점,2026-03-16
ChIJ6_vih16NaDURd47LIvAYobU,맛찬들왕소금구이 해운대점,한식 고기구이 레스토랑,음식점,4.4,999,3,PRICE_LEVEL_EXPENSIVE,대한민국 부산광역시 해운대구 우동 635-14 맛찬들 왕소금구이,해운대구,35.1610861,129.1590465,OPERATIONAL,"korean_barbecue_restaurant,korean_restaurant,restaurant,food,point_of_interest,establishment",해운대구 음식점,2026-03-16
ChIJsboD-12NaDURsWLGOaQ0hxI,해운대오복돼지국밥,한식당,음식점,4.4,1670,2,PRICE_LEVEL_MODERATE,대한민국 부산광역시 해운대구 구남로 15,해운대구,35.1626121,129.1600382,OPERATIONAL,"korean_restaurant,restaurant,food,point_of_interest,establishment",해운대구 음식점,2026-03-16
ChIJr42X_KGNaDURacM3EneFgFA,진우린해장 해운대본점,한식당,음식점,4.9,429,,,대한민국 부산광역시 해운대구 중동1로 44 1층,해운대구,35.161889300000006,129.1633981,OPERATIONAL,"korean_barbecue_restaurant,korean_restaurant,restaurant,food,point_of_interest,establishment",해운대구 음식점,2026-03-16
ChIJMxDCCV6NaDURRIgoLBT1UnA,고래사어묵 해운대점,일본 음식점,음식점,4.2,2392,2,PRICE_LEVEL_MODERATE,대한민국 부산광역시 해운대구 구남로 14,해운대구,35.1625695,129.1595472,OPERATIONAL,"japanese_restaurant,restaurant,food,point_of_interest,establishment",해운대구 음식점,2026-03-16
ChIJAwlBgCONaDURdmNRS85syro,푸라닭 부산중동점,테이크아웃 전문 레스토랑,음식점,4.7,202,,,대한민국 부산광역시 해운대구 좌동순환로 494,해운대구,35.1649621,129.1693981,OPERATIONAL,"meal_takeaway,restaurant,food,point_of_interest,establishment",해운대구 음식점,2026-03-16
ChIJQ8b-8WiNaDUROTxhy9aCFTA,해운대 암소갈비집,한식 고기구이 레스토랑,음식점,3.9,3707,4,PRICE_LEVEL_VERY_EXPENSIVE,대한민국 부산광역시 해운대구 해운대해변로 333,해운대구,35.163246199999996,129.1662962,OPERATIONAL,"korean_barbecue_restaurant,korean_restaurant,restaurant,food,point_of_interest,establishment",해운대구 음식점,2026-03-16
ChIJR-I3BSqNaDURshl65sm-iuY,스무고개,한식당,음식점,4.8,1124,,,"대한민국 부산광역시 해운대구 좌동순환로468번가길 81 1층,2층",해운대구,35.1646492,129.1751047,OPERATIONAL,"korean_restaurant,restaurant,food,point_of_interest,establishment",해운대구 음식점,2026-03-16
ChIJiYAR3_ONaDURK3wGkip3Evg,해운대31cm해물칼국수 해운대시장점,국수 전문점,음식점,4.4,450,,,대한민국 부산광역시 해운대구 구남로41번길 46,해운대구,35.162143799999996,129.1630449,OPERATIONAL,"noodle_shop,restaurant,food,point_of_interest,establishment",해운대구 음식점,2026-03-16
ChIJt2Bc6iyNaDURcr4wciK82iM,전설의우대갈비 해운대 ( Legendary Ribs Haeundae ),한식당,음식점,4.9,1462,,,대한민국 부산광역시 해운대구 해운대해변로 277 3층,해운대구,35.1599485,129.1617164,OPERATIONAL,"korean_restaurant,restaurant,food,point_of_interest,establishment",해운대구 음식점,2026-03-16
ChIJT0JtXcCNaDURAdSOhpDtgV8,60계치킨 해운대점,음식점,음식점,4.5,148,,,대한민국 부산광역시 해운대구 구남로29번길 26,해운대구,35.1621932,129.1618325,OPERATIONAL,"chicken_restaurant,restaurant,food,point_of_interest,establishment",해운대구 음식점,2026-03-16
ChIJ43gdfMaTaDURVWP9s_-T_rc,원조전복죽,음식점,음식점,3.1,391,,,대한민국 부산광역시 해운대구 해운대해변로298번길 24,해운대구,35.1605126,129.16604089999998,OPERATIONAL,"restaurant,food,point_of_interest,establishment",해운대구 음식점,2026-03-16
ChIJwRRdMVyNaDUR3gs_IgM-ACU,나마스테 해운대,인도 레스토랑,음식점,4.8,3012,2,PRICE_LEVEL_MODERATE,대한민국 부산광역시 해운대구 해운대해변로265번길 7,해운대구,35.160153699999995,129.16063929999999,OPERATIONAL,"indian_restaurant,halal_restaurant,restaurant,food,point_of_interest,establishment",해운대구 음식점,2026-03-16
ChIJ-ebR3l2NaDURmbr14mvrOMU,해목,일본 음식점,음식점,4.5,2467,3,PRICE_LEVEL_EXPENSIVE,대한민국 부산광역시 해운대구 구남로24번길 8,해운대구,35.161780799999995,129.15966659999998,OPERATIONAL,"japanese_restaurant,restaurant,food,point_of_interest,establishment",해운대구 음식점,2026-03-16
ChIJ5ShFWQCNaDURCh-09tqQIiU,구남로스 Gunamroast haeundae korean bbq | haeundae restaurants | grilled beef | samgyeopsal I haeundae beach,한식 고기구이 레스토랑,음식점,5,1755,,,대한민국 부산광역시 해운대구 우동 번지 1층 540-4 1호 팔레스오피스텔,해운대구,35.1624974,129.1589156,OPERATIONAL,"korean_barbecue_restaurant,korean_restaurant,restaurant,food,point_of_interest,establishment",해운대구 음식점,2026-03-16
ChIJxUYykBGNaDUR91HUlir4CzE,엄용백돼지국밥 해운대점,한식당,음식점,4.5,449,,,대한민국 부산광역시 해운대구 구남로24번길 39,해운대구,35.1607506,129.1585312,OPERATIONAL,"korean_restaurant,restaurant,food,point_of_interest,establishment",해운대구 음식점,2026-03-16
ChIJfWvOSlyNaDURv34jgAoTyhk,더 명품해물탕조개구이,해산물 요리 전문식당,음식점,4.7,1161,,,대한민국 부산광역시 해운대구 해운대해변로265번길 10,해운대구,35.1603346,129.1610441,OPERATIONAL,"seafood_restaurant,korean_restaurant,restaurant,food,point_of_interest,establishment",해운대구 음식점,2026-03-16
ChIJ32cgnbWSaDURRBmyaEdLiJs,수변최고돼지국밥 본점,한식당,음식점,4.4,2226,2,PRICE_LEVEL_MODERATE,대한민국 부산광역시 수영구 광안해변로370번길 9-32,수영구,35.1567627,129.13427900000002,OPERATIONAL,"korean_restaurant,restaurant,food,point_of_interest,establishment",해운대구 음식점,2026-03-16
ChIJCyviD_SNaDUR7NbfxK5KmsU,미포집 송정직영점,해산물 요리 전문식당,음식점,4.4,422,,,대한민국 부산광역시 해운대구 송정구덕포길 70,해운대구,35.1727839,129.19771939999998,OPERATIONAL,"seafood_restaurant,restaurant,food,point_of_interest,establishment",해운대구 음식점,2026-03-16
ChIJf9C8wG-NaDURVEtK1GCwBmA,해운대 가야밀면,한식당,음식점,4.1,2406,2,PRICE_LEVEL_MODERATE,대한민국 부산광역시 해운대구 좌동순환로 27 가야밀면,해운대구,35.168852099999995,129.16634639999998,OPERATIONAL,"korean_restaurant,restaurant,food,point_of_interest,establishment",해운대구 음식점,2026-03-16
ChIJVSM0W7yNaDURb1ZeBsB6y6Y,이우철 한방누룽지 삼계탕 부산본점,한식당,음식점,4.5,227,2,PRICE_LEVEL_MODERATE,대한민국 부산광역시 해운대구 좌동로14번길 20,해운대구,35.1674503,129.1704724,OPERATIONAL,"korean_restaurant,restaurant,food,point_of_interest,establishment",해운대구 음식점,2026-03-16
ChIJ6wdPo26NaDURBhZP6H8A498,안가(ANGA)숯불구이,한식 고기구이 레스토랑,음식점,4.5,506,2,PRICE_LEVEL_MODERATE,대한민국 부산광역시 해운대구 좌동순환로 494-1,해운대구,35.1650831,129.16919529999998,OPERATIONAL,"korean_barbecue_restaurant,korean_restaurant,restaurant,food,point_of_interest,establishment",해운대구 음식점,2026-03-16
ChIJt_z16a6NaDURq9fLTbjNsIo,해운대31cm해물칼국수 본점,국수 전문점,음식점,4.2,942,,,대한민국 부산광역시 해운대구 좌동로91번길 10,해운대구,35.1729263,129.1748354,OPERATIONAL,"noodle_shop,restaurant,food,point_of_interest,establishment",해운대구 음식점,2026-03-16
ChIJR5CgxGuNaDUR4-RV1iT_ptg,거대갈비 신관,한식당,음식점,4.4,545,4,PRICE_LEVEL_VERY_EXPENSIVE,대한민국 부산광역시 해운대구 좌동순환로 459,해운대구,35.1621932,129.1706912,OPERATIONAL,"korean_restaurant,restaurant,food,point_of_interest,establishment",해운대구 음식점,2026-03-16
ChIJ1RhruNGNaDUR6YggTVFfa30,낙불집,음식점,음식점,4.5,338,2,PRICE_LEVEL_MODERATE,대한민국 부산광역시 해운대구 송정광어골로 67,해운대구,35.1754372,129.1965124,OPERATIONAL,"restaurant,food,point_of_interest,establishment",해운대구 음식점,2026-03-16
ChIJs5Xyqk2MaDUR8NQhHgvzRYs,다솥맛집(송정점),한식당,음식점,4,974,3,PRICE_LEVEL_EXPENSIVE,대한민국 부산광역시 해운대구 송정광어골로 29,해운대구,35.1785682,129.197913,OPERATIONAL,"korean_restaurant,restaurant,food,point_of_interest,establishment",해운대구 음식점,2026-03-16
ChIJtXsLxmuNaDURw9jmD3SneUU,맥도날드 달맞이DT점,햄버거 전문점,음식점,4.2,968,2,PRICE_LEVEL_MODERATE,대한민국 부산광역시 해운대구 좌동순환로 455,해운대구,35.16182320000001,129.17091969999998,OPERATIONAL,"hamburger_restaurant,american_restaurant,restaurant,food,point_of_interest,establishment",해운대구 음식점,2026-03-16
ChIJ2eGEYQCNaDURqvyOpa2_lMI,오봉집,한식당,음식점,5,5,,,대한민국 부산광역시 해운대구 양운로,해운대구,35.1686204,129.1769967,OPERATIONAL,"korean_restaurant,restaurant,food,point_of_interest,establishment",해운대구 음식점,2026-03-16
ChIJ9UjtO3WNaDUROfkLG6ABVgQ,병천순대국밥,한식당,음식점,4.1,733,2,PRICE_LEVEL_MODERATE,대한민국 부산광역시 해운대구 좌동 1295-1,해운대구,35.1747598,129.1742256,OPERATIONAL,"korean_restaurant,restaurant,food,point_of_interest,establishment",해운대구 음식점,2026-03-16
ChIJGSlhjkuMaDURx5mhZqxIgFg,송정 가연장 미역국정찬 부산본점 Busan GYJ,한식당,음식점,4.2,591,2,PRICE_LEVEL_MODERATE,대한민국 부산광역시 해운대구 송정동 158-19,해운대구,35.1810299,129.1994787,OPERATIONAL,"korean_restaurant,seafood_restaurant,restaurant,food,point_of_interest,establishment",해운대구 음식점,2026-03-16
ChIJ6zDe1jeNaDUR7EQd_-EWgSI,어부의술상,해산물 요리 전문식당,음식점,4.4,27,,,대한민국 부산광역시 해운대구 송정구덕포길 160,해운대구,35.1687503,129.1971465,OPERATIONAL,"seafood_restaurant,restaurant,food,point_of_interest,establishment",해운대구 음식점,2026-03-16
ChIJgznG4GWNaDURYkdrBRfUSog,쿠우쿠우 해운대점 ( QOO QOO Haeundae ),뷔페 식당,음식점,4.9,49,2,PRICE_LEVEL_MODERATE,"대한민국 부산광역시 해운대구 해운대로 802 B동 601호, 602호",해운대구,35.1692684,129.1768025,OPERATIONAL,"buffet_restaurant,sushi_restaurant,korean_barbecue_restaurant,vegan_restaurant,vegetarian_restaurant,japanese_restaurant,korean_restaurant,restaurant,food,point_of_interest,establishment",해운대구 음식점,2026-03-16
ChIJa8q2Q9CNaDURXj329N-lTI0,명륜진사갈비 해운대점,숯불구이/바베큐전문점,음식점,4.3,124,,,대한민국 부산광역시 해운대구 양운로80번길 2층,해운대구,35.1707445,129.17611399999998,OPERATIONAL,"barbecue_restaurant,restaurant,food,point_of_interest,establishment",해운대구 음식점,2026-03-16
ChIJvaVp35KNaDURxH6x_LUn1q4,홀리라운지 Holi lounge 海景西餐厅 サーフホリック,서양음식전문점,음식점,4.7,59,,,"대한민국 부산광역시 해운대구 송정중앙로6번길 143 루프탑 2층, 3층",해운대구,35.1780119,129.1978536,OPERATIONAL,"western_restaurant,italian_restaurant,korean_restaurant,restaurant,food,point_of_interest,establishment",해운대구 음식점,2026-03-16
ChIJIdM45RGNaDURhm7LG-oCb84,타라코소바(TARAKOSOBA),일본라면 전문식당,음식점,5,191,,,대한민국 부산광역시 해운대구 해운대해변로359번길 27 승훈빌딩 1층,해운대구,35.1648944,129.1683918,OPERATIONAL,"ramen_restaurant,japanese_restaurant,restaurant,food,point_of_interest,establishment",해운대구 음식점,2026-03-16
ChIJN0IUpLONaDURUr0q5G2BLKY,고반식당 해운대점,한식 고기구이 레스토랑,음식점,4.8,791,,,대한민국 부산광역시 해운대구 우동 540-6,해운대구,35.1623697,129.15869139999998,OPERATIONAL,"korean_barbecue_restaurant,korean_restaurant,restaurant,food,point_of_interest,establishment",해운대구 음식점,2026-03-16
ChIJ5ZCWANSNaDURD025FkyG4sk,해운대 맛집 쇼미더고기 고기집 | Haeundae Korean bbq | Korean bbq restaurant | 海雲臺 烤肉店 | 美食,한식 고기구이 레스토랑,음식점,4.9,909,,,대한민국 부산광역시 해운대구 중동1로17번길 11,해운대구,35.1638654,129.1619181,OPERATIONAL,"korean_barbecue_restaurant,korean_restaurant,barbecue_restaurant,restaurant,food,point_of_interest,establishment",해운대구 음식점,2026-03-16
ChIJ2Vr7D5aSaDURUgXIB79KVcE,교촌치킨 우동1호점,음식점,음식점,4.1,82,2,PRICE_LEVEL_MODERATE,대한민국 부산광역시 해운대구 해운대로 381-3,해운대구,35.1694593,129.1385963,OPERATIONAL,"restaurant,food,point_of_interest,establishment",해운대구 음식점,2026-03-16
ChIJDQ9pyFiNaDURRlzGPj5A_5A,솔솥 해운대점,한식당,음식점,4.6,179,,,대한민국 부산광역시 해운대구 우동1로20번길 27-10,해운대구,35.164660399999995,129.1578865,OPERATIONAL,"korean_restaurant,restaurant,food,point_of_interest,establishment",해운대구 음식점,2026-03-16
ChIJH9vDHGGNaDUR2GrUTQC42RU,나가하마 만게츠 한국본점,일본라면 전문식당,음식점,4.3,1150,2,PRICE_LEVEL_MODERATE,대한민국 부산광역시 해운대구 우동1로 57,해운대구,35.1666425,129.1574833,OPERATIONAL,"ramen_restaurant,japanese_restaurant,restaurant,food,point_of_interest,establishment",해운대구 음식점,2026-03-16
ChIJ6XxvTl6NaDURStTXsep7rHo,교촌치킨 해운대역점,테이크아웃 전문 레스토랑,음식점,3.8,94,2,PRICE_LEVEL_MODERATE,대한민국 부산광역시 해운대구 해운대로 604,해운대구,35.1624666,129.1573469,OPERATIONAL,"meal_takeaway,restaurant,food,point_of_interest,establishment",해운대구 음식점,2026-03-16
ChIJb_yIfWaTaDURZHdwmrHy9Xo,수변최고돼지국밥 센텀점,한식당,음식점,4.3,266,2,PRICE_LEVEL_MODERATE,대한민국 부산광역시 해운대구 센텀3로 26,해운대구,35.167132300000006,129.1334539,OPERATIONAL,"korean_restaurant,restaurant,food,point_of_interest,establishment",해운대구 음식점,2026-03-16
ChIJE6lAirONaDURbEhWT5Oytzs,류센소 본점,일본라면 전문식당,음식점,4.6,530,2,PRICE_LEVEL_MODERATE,대한민국 부산광역시 해운대구 구남로8번길 62,해운대구,35.161516999999996,129.1563215,OPERATIONAL,"ramen_restaurant,japanese_restaurant,restaurant,food,point_of_interest,establishment",해운대구 음식점,2026-03-16
ChIJ5UR5xriNaDURFeZrYya3eb0,프라한(Prahran),브런치 식당,음식점,4.6,172,,,대한민국 부산광역시 해운대구 우동1로 42,해운대구,35.165315199999995,129.1577086,OPERATIONAL,"brunch_restaurant,restaurant,food,point_of_interest,establishment",해운대구 음식점,2026-03-16
ChIJJRnObj2NaDURX8XOerQ7Mu0,소촌갈비찜,한식당,음식점,4.9,331,,,대한민국 부산광역시 해운대구 우동1로20번길 29 2층,해운대구,35.1645148,129.15809579999998,OPERATIONAL,"korean_restaurant,restaurant,food,point_of_interest,establishment",해운대구 음식점,2026-03-16
ChIJ3clm02CNaDURDVjU4F1_oaE,빨간떡볶이,한식당,음식점,4.2,328,,,대한민국 부산광역시 해운대구 우동1로20번길 74,해운대구,35.1655064,129.1604729,OPERATIONAL,"snack_bar,meal_takeaway,korean_restaurant,restaurant,food,point_of_interest,establishment",해운대구 음식점,2026-03-16
ChIJCWKqlcCSaDURuHk7lsRu-QA,우정돌솥비빔밥,한식당,음식점,4.3,211,,,대한민국 부산광역시 해운대구 센텀동로 9,해운대구,35.1708553,129.1324227,OPERATIONAL,"korean_restaurant,restaurant,food,point_of_interest,establishment",해운대구 음식점,2026-03-16
ChIJS5an2neNaDURb_N_xPpxiTQ,딤타오,딤섬 전문 레스토랑,음식점,4.3,570,,,대한민국 부산광역시 해운대구 우동1로 25,해운대구,35.1639406,129.156471,OPERATIONAL,"dim_sum_restaurant,cantonese_restaurant,chinese_restaurant,restaurant,food,point_of_interest,establishment",해운대구 음식점,2026-03-16
ChIJFTJuIbyNaDURBNcGIQQ7xe0,CAFE HAEUNDAE 1994,커피숍/커피 전문점,카페,4.5,116,,,대한민국 부산광역시 해운대구 해운대로 620 카페해운대1994 122호,해운대구,35.1632284,129.1584158,OPERATIONAL,"coffee_shop,breakfast_restaurant,brunch_restaurant,dessert_restaurant,bakery,cafe,food_store,store,restaurant,food,point_of_interest,establishment",해운대구 음식점,2026-03-16
ChIJSXK7o8eSaDURhJghQGifgK0,그랜드애플,뷔페 식당,음식점,4.2,1669,3,PRICE_LEVEL_EXPENSIVE,대한민국 부산광역시 6F Centum 1ro 25 한샘빌딩 KR 부산광역시 해운대구 센텀1로,해운대구,35.166417599999996,129.13203439999998,OPERATIONAL,"buffet_restaurant,restaurant,food,point_of_interest,establishment",해운대구 음식점,2026-03-16
ChIJdeWjcgCNaDURdLmpwK1bhlQ,수변최고돼지국밥,한식당,음식점,4.4,224,,,대한민국 부산광역시 해운대구 달맞이길62번길 27,해운대구,35.1592044,129.1705986,OPERATIONAL,"korean_restaurant,restaurant,food,point_of_interest,establishment",해운대구 음식점,2026-03-16
ChIJx25ECUCNaDUR8DaTItCk25o,미포끝집,해산물 요리 전문식당,음식점,3.7,995,2,PRICE_LEVEL_MODERATE,대한민국 부산광역시 해운대구 달맞이길62번길 77,해운대구,35.156554,129.1749084,OPERATIONAL,"seafood_restaurant,restaurant,food,point_of_interest,establishment",해운대구 음식점,2026-03-16
ChIJ_____6ySaDURjuB33f8djxY,마산게낙찜.해마끼간장게장,음식점,음식점,4.4,671,,,"대한민국 부산광역시 해운대구 해운대해변로298번길 24 팔레드시즈 콘도 KR 2층 8,9,10호",해운대구,35.160128,129.1665765,OPERATIONAL,"restaurant,korean_restaurant,food,point_of_interest,establishment",해운대구 음식점,2026-03-16
ChIJ0VSIVAONaDURxjH37UnCd7c,수민이네,음식점,음식점,3.7,2486,2,PRICE_LEVEL_MODERATE,대한민국 부산광역시 해운대구 청사포로58번길 118,해운대구,35.1606204,129.1910269,OPERATIONAL,"restaurant,food,point_of_interest,establishment",해운대구 음식점,2026-03-16
ChIJxYhym0KNaDUR8aR23MYpfVg,BHC치킨 해운대팔래드점,음식점,음식점,3.8,122,2,PRICE_LEVEL_MODERATE,대한민국 부산광역시 해운대구 해운대해변로298번길 24,해운대구,35.1602037,129.16659719999998,OPERATIONAL,"restaurant,food,point_of_interest,establishment",해운대구 음식점,2026-03-16
ChIJHwwwa_qNaDURc6FgOgBcY1k,극동돼지국밥,한식당,음식점,4.2,361,2,PRICE_LEVEL_MODERATE,대한민국 부산광역시 해운대구 중동 948-5,해운대구,35.1597885,129.1705881,OPERATIONAL,"korean_restaurant,restaurant,food,point_of_interest,establishment",해운대구 음식점,2026-03-16
ChIJnZFxsGqNaDUR7lDrdVP4BxY,해운대 기와집 대구탕,한식당,음식점,4.1,3236,2,PRICE_LEVEL_MODERATE,대한민국 부산광역시 해운대구 달맞이길50번길 4,해운대구,35.161079799999996,129.1700367,OPERATIONAL,"korean_restaurant,restaurant,food,point_of_interest,establishment",해운대구 음식점,2026-03-16
ChIJRQC0S1iNaDURCbW2eeGcmXo,"AND COFFEE (Breakfast,restaurants,brunch,海雲台早餐,朝ごはん,pizza)",브런치 식당,카페,4.5,136,,,대한민국 부산광역시 해운대구 해운대해변로 317 앤드커피,해운대구,35.1622396,129.16511649999998,OPERATIONAL,"brunch_restaurant,dessert_restaurant,coffee_shop,pizza_restaurant,pub,cafe,bar,italian_restaurant,food_store,store,restaurant,food,point_of_interest,establishment",해운대구 음식점,2026-03-16
ChIJr2lthiKNaDURevoXxpMMw28,규우정,한식당,음식점,4.6,338,,,대한민국 부산광역시 해운대구 해운대해변로298번길 24 팔래드시즈 2층 2~3호,해운대구,35.160132499999996,129.1665759,OPERATIONAL,"wine_bar,cocktail_bar,bar,korean_restaurant,restaurant,food,point_of_interest,establishment",해운대구 음식점,2026-03-16
ChIJpVTpOs-NaDUROw9z5wVrn5k,풍천만민물장어,일본 음식점,음식점,4.9,746,,,대한민국 부산광역시 해운대구 달맞이길 22,해운대구,35.1618972,129.167399,OPERATIONAL,"barbecue_restaurant,japanese_restaurant,korean_restaurant,restaurant,food,point_of_interest,establishment",해운대구 음식점,2026-03-16
ChIJTcYvpmmNaDURQehkamCuHB4,거대갈비 본관,한식당,음식점,4.2,772,4,PRICE_LEVEL_VERY_EXPENSIVE,대한민국 부산광역시 해운대구 달맞이길 22,해운대구,35.1615085,129.1668928,OPERATIONAL,"korean_restaurant,restaurant,food,point_of_interest,establishment",해운대구 음식점,2026-03-16
ChIJw8lkW8uSaDURpuysq1QSD6s,고릴라브루잉 비치점,호프/생맥주집,음식점,4.4,1031,2,PRICE_LEVEL_MODERATE,대한민국 부산광역시 해운대구 달맞이길 30,해운대구,35.1597846,129.16884629999998,OPERATIONAL,"pub,brewpub,bar,restaurant,food,point_of_interest,establishment",해운대구 음식점,2026-03-16
ChIJYwWVmaaNaDUR3DR8YO5wlC4,home Bistro,채식 전문식당,카페,4.8,101,,,대한민국 부산광역시 해운대구 달맞이길117번길 17-11,해운대구,35.1585375,129.17493349999998,OPERATIONAL,"vegetarian_restaurant,wine_bar,cafe,bar,restaurant,food,point_of_interest,establishment",해운대구 음식점,2026-03-16
ChIJXzvU_EGNaDUR3CjGrZBo6W0,박옥희 할매집원조복국,일본 음식점,음식점,4.2,1516,2,PRICE_LEVEL_MODERATE,대한민국 부산광역시 해운대구 달맞이길62번길 28,해운대구,35.158988099999995,129.1705374,OPERATIONAL,"japanese_restaurant,restaurant,food,point_of_interest,establishment",해운대구 음식점,2026-03-16
ChIJV79h3DuNaDURIMPC38nNb5I,지노스 뉴욕 피자 해운대점,피자 전문점,음식점,4.3,217,,,대한민국 부산광역시 해운대구 해운대해변로298번길 24 팔레드시즈 1층 1-24호,해운대구,35.160285699999996,129.1659714,OPERATIONAL,"pizza_restaurant,restaurant,food,point_of_interest,establishment",해운대구 음식점,2026-03-16
ChIJ8_GPyHeNaDURha_9MZpINOY,신사꽂게당 해운대점 Haeundae Marinated Crab – Korean Gejang Restaurant | 海雲台ケジャン専門店｜韓国カニ料理,음식점,음식점,4.9,542,,,대한민국 부산광역시 해운대구 우동 627-1,해운대구,35.159708099999996,129.1595155,OPERATIONAL,"restaurant,food,point_of_interest,establishment",해운대구 음식점,2026-03-16
ChIJgQAEQV6NaDURVU9udPkT78g,워킹홀리데이 해운대 workingholiday brunch cafe bakery,카페,카페,4.9,638,,,대한민국 부산광역시 해운대구 해운대해변로 277 다옴빌딩 5층,해운대구,35.1599125,129.161721,OPERATIONAL,"cafe,brunch_restaurant,coffee_shop,bakery,food_store,store,restaurant,food,point_of_interest,establishment",해운대구 음식점,2026-03-16
ChIJ2TCgMFyNaDURXs8tcT2jah4,맥도날드 해운대DT점,패스트푸드점,음식점,4,1352,2,PRICE_LEVEL_MODERATE,대한민국 부산광역시 해운대구 해운대로570번길 51,해운대구,35.1600985,129.1596415,OPERATIONAL,"fast_food_restaurant,restaurant,food,point_of_interest,establishment",해운대구 음식점,2026-03-16
ChIJHzotU6SNaDURJG2-UQ2MD9M,에그드랍 해운대점,커피숍/커피 전문점,카페,3.9,324,,,대한민국 부산광역시 해운대구 해운대로 620,해운대구,35.163291199999996,129.1587251,OPERATIONAL,"coffee_shop,cafe,food_store,food,point_of_interest,store,establishment",해운대구 카페,2026-03-16
ChIJnzcoiB6NaDURx83B6qnk4V8,랑데자뷰 해운대점,카페,카페,4.2,563,2,PRICE_LEVEL_MODERATE,대한민국 부산광역시 해운대구 달맞이길62번길 23,해운대구,35.1593146,129.1704433,OPERATIONAL,"cafe,food,point_of_interest,establishment",해운대구 카페,2026-03-16
ChIJ8-scNuyNaDURpXTHqbTRkLs,스타벅스 해운대엑스더스카이점,커피숍/커피 전문점,카페,3.8,300,2,PRICE_LEVEL_MODERATE,대한민국 부산광역시 해운대구 달맞이길 30,해운대구,35.1600506,129.1700124,OPERATIONAL,"coffee_shop,cafe,food_store,food,point_of_interest,store,establishment",해운대구 카페,2026-03-16
ChIJJdhYegCTaDURHJFlgH8Mo-Q,스탠다드브레드 해운대,카페,카페,4.9,1395,,,대한민국 부산광역시 해운대구 해운대로 571,해운대구,35.161336999999996,129.1540882,OPERATIONAL,"cafe,food,point_of_interest,establishment",해운대구 카페,2026-03-16
ChIJFd_EXe-NaDURmfUXG6sm2Gk,동백 104 루프탑 카페,커피숍/커피 전문점,카페,4.8,109,,,대한민국 부산광역시 해운대구 달맞이길104번길 18-19,해운대구,35.1577084,129.1736666,OPERATIONAL,"coffee_shop,cafe,food_store,food,point_of_interest,store,establishment",해운대구 카페,2026-03-16
ChIJQ8zHkGeNaDURiWBWoDoXAT8,옵스 해운대점,제과점,카페,4,1718,2,PRICE_LEVEL_MODERATE,대한민국 부산광역시 해운대구 중동1로 31,해운대구,35.1627911,129.1628989,OPERATIONAL,"bakery,cafe,food_store,food,point_of_interest,store,establishment",해운대구 카페,2026-03-16
ChIJxVTc7MGTaDUR4786iFUPUTc,모모스커피 마린시티점 (Momos Coffee Marine City),카페,카페,4.7,194,,,대한민국 부산광역시 해운대구 마린시티1로 91 101동 1층 101호,해운대구,35.1544957,129.1443344,OPERATIONAL,"cafe,coffee_shop,food_store,food,point_of_interest,store,establishment",해운대구 카페,2026-03-16
ChIJnURqPACNaDUR9CXPXEd3YR4,海理團路,커피숍/커피 전문점,카페,5,5,,,대한민국 부산광역시 해운대구 우동 510-7,해운대구,35.164838599999996,129.1576029,OPERATIONAL,"coffee_shop,cafe,food_store,food,point_of_interest,store,establishment",해운대구 카페,2026-03-16
ChIJ4blBfSaNaDURnQdMtiKrWyc,후스후무무(Who's who Mumu),카페,카페,4.9,753,,,대한민국 부산광역시 해운대구 달맞이길62번길 3 B1,해운대구,35.1607187,129.1714236,OPERATIONAL,"cafe,bakery,food_store,food,point_of_interest,store,establishment",해운대구 카페,2026-03-16
ChIJ4Q1rYnSNaDURPjAJeCysT_w,타이드,커피숍/커피 전문점,카페,4.8,171,,,대한민국 부산광역시 해운대구 달맞이길62번길 53 2층 타이드,해운대구,35.157617,129.1729163,OPERATIONAL,"coffee_shop,cafe,food_store,food,point_of_interest,store,establishment",해운대구 카페,2026-03-16
ChIJl2SIm8KNaDURRcf0A2gv9X4,OSULLOC │ 오설록 티하우스 해운대,카페,카페,4.9,564,,,대한민국 부산광역시 해운대구 구남로 36-1 1F-2F,해운대구,35.16093,129.1608786,OPERATIONAL,"cafe,food,point_of_interest,establishment",해운대구 카페,2026-03-16
ChIJt9EGQQCTaDURgLDFfViKzA4,Snoopy Place Busan,카페,카페,4.7,48,,,대한민국 부산광역시 해운대구 해운대해변로 197 1동 102호 경동제이드,해운대구,35.1584016,129.1527892,OPERATIONAL,"cafe,food,point_of_interest,establishment",해운대구 카페,2026-03-16
ChIJEzqp4l2NaDUR3bS2FP_TeyI,설빙 해운대역점,디저트 전문 레스토랑,카페,3.9,338,2,PRICE_LEVEL_MODERATE,대한민국 부산광역시 해운대구 구남로 20,해운대구,35.1621683,129.15980869999999,OPERATIONAL,"dessert_restaurant,cafe,restaurant,food,point_of_interest,establishment",해운대구 카페,2026-03-16
ChIJKwcQ9j-NaDURGTgEpcQeHl8,엣지993,커피숍/커피 전문점,카페,4.3,776,,,대한민국 부산광역시 해운대구 달맞이길62번길 78,해운대구,35.1564176,129.1752149,OPERATIONAL,"coffee_shop,cafe,food_store,food,point_of_interest,store,establishment",해운대구 카페,2026-03-16
ChIJB96GBBCNaDUR7MTdJQJQFU0,비비비당(Bibibidang),카페,카페,4.4,1106,3,PRICE_LEVEL_EXPENSIVE,대한민국 부산광역시 해운대구 달맞이길 239-16,해운대구,35.1624833,129.1850753,OPERATIONAL,"cafe,food,point_of_interest,establishment",해운대구 카페,2026-03-16
ChIJ6ZqZbF2NaDURRV3DsEK5IFY,카페 레빗 (Coffee Rabbit),커피숍/커피 전문점,카페,4.9,64,,,대한민국 부산광역시 해운대구 달맞이길62번길 5-57 1 층,해운대구,35.158556,129.17294950000002,OPERATIONAL,"coffee_shop,cafe,food_store,food,point_of_interest,store,establishment",해운대구 카페,2026-03-16
ChIJw20J712NaDURp8WCR6QSlDI,파스쿠찌 해운대점,커피숍/커피 전문점,카페,4.1,549,2,PRICE_LEVEL_MODERATE,대한민국 부산광역시 해운대구 구남로 19-1,해운대구,35.1622244,129.1603257,OPERATIONAL,"coffee_shop,cafe,food_store,food,point_of_interest,store,establishment",해운대구 카페,2026-03-16
ChIJV7ehbFCNaDURS2BXnIBgyMI,로우앤스윗 해운대 (Raw&Sweet Bakery Cafe),커피숍/커피 전문점,카페,4.6,111,,,대한민국 부산광역시 해운대구 우동1로38번가길 1 1층,해운대구,35.1651124,129.1580704,OPERATIONAL,"coffee_shop,coffee_roastery,cafe,food_store,food,point_of_interest,store,establishment",해운대구 카페,2026-03-16
ChIJmVcT316NaDUREDvrqjcFI_4,까사 부사노 해운대점,커피숍/커피 전문점,카페,4.4,171,,,대한민국 부산광역시 해운대구 구남로 17 1 1F,해운대구,35.1624635,129.1601466,OPERATIONAL,"coffee_shop,cafe,food_store,food,point_of_interest,store,establishment",해운대구 카페,2026-03-16
ChIJxa4u0WeNaDURAjyoVvz_pBw,블랙업커피 해운대점,카페,카페,4.3,508,2,PRICE_LEVEL_MODERATE,대한민국 부산광역시 해운대구 중동2로 16 온천센터 1층,해운대구,35.1633954,129.1645474,OPERATIONAL,"cafe,food,point_of_interest,establishment",해운대구 카페,2026-03-16
ChIJhTH9B12NaDURxSXJhyvUktg,스타벅스 해운대점,커피숍/커피 전문점,카페,3.8,462,2,PRICE_LEVEL_MODERATE,대한민국 부산광역시 해운대구 구남로 49 엘리시아부띠끄 호텔 1층,해운대구,35.1601873,129.1622099,OPERATIONAL,"coffee_shop,cafe,food_store,food,point_of_interest,store,establishment",해운대구 카페,2026-03-16
ChIJVWIGqiGNaDUR7vDLWYrIKQk,오프온,카페,카페,4.5,127,,,대한민국 부산광역시 해운대구 우동1로38번길 12,해운대구,35.1652657,129.15834479999998,OPERATIONAL,"cafe,food,point_of_interest,establishment",해운대구 카페,2026-03-16
ChIJn4H4K4yNaDURd9B6xaAP8vY,메가커피 해운대시장점,커피숍/커피 전문점,카페,4,57,,,대한민국 부산광역시 해운대구 중동1로 35,해운대구,35.1624628,129.16335949999998,OPERATIONAL,"coffee_shop,cafe,food_store,food,point_of_interest,store,establishment",해운대구 카페,2026-03-16
ChIJVd1RosONaDURXgjKhzBr5lo,시니컴퍼니,커피숍/커피 전문점,카페,4.3,92,,,대한민국 부산광역시 해운대구 구남로 37,해운대구,35.1610456,129.1614329,OPERATIONAL,"coffee_shop,cafe,food_store,food,point_of_interest,store,establishment",해운대구 카페,2026-03-16
ChIJUaDbpF2NaDUR-UNyxUj07-o,마르쉐커피바,카페,카페,4.6,21,,,대한민국 부산광역시 해운대구 구남로41번길 5 1층,해운대구,35.1609078,129.16161929999998,OPERATIONAL,"cafe,coffee_shop,food_store,food,point_of_interest,store,establishment",해운대구 카페,2026-03-16
ChIJW1vJq12NaDURrtTAUNGilQY,메가커피 해운대해변점,커피숍/커피 전문점,카페,4.1,18,1,PRICE_LEVEL_INEXPENSIVE,대한민국 부산광역시 해운대구 구남로 45,해운대구,35.160227899999995,129.1619649,OPERATIONAL,"coffee_shop,cafe,food_store,food,point_of_interest,store,establishment",해운대구 카페,2026-03-16
ChIJ83dkDduNaDURU5czoTS1P1o,POTION HAEUNDAE BRUNCH CAFE & BAR | 포션 해운대 브런치 카페 & 바,브런치 식당,카페,5,116,,,대한민국 부산광역시 해운대구 우동1로20번길 7 2층 포션,해운대구,35.16390380000001,129.1571119,OPERATIONAL,"brunch_restaurant,western_restaurant,bistro,cafe,bar,restaurant,food,point_of_interest,establishment",해운대구 카페,2026-03-16
ChIJOzeOznKNaDURmLzSJl-utgE,보노베리 Bono Berry 해운대점,카페,카페,4.7,38,,,대한민국 부산광역시 해운대구 중동1로 25-2 1층,해운대구,35.162965199999995,129.16253229999998,OPERATIONAL,"cafe,cake_shop,sandwich_shop,dessert_shop,confectionery,wholesaler,bakery,food_store,manufacturer,restaurant,food,point_of_interest,store,establishment",해운대구 카페,2026-03-16
ChIJeYQOzcyNaDURUIEo9hlk2xo,스타벅스 해운대역점,커피숍/커피 전문점,카페,4.1,385,2,PRICE_LEVEL_MODERATE,대한민국 부산광역시 해운대구 구남로 9,해운대구,35.1632307,129.15943049999998,OPERATIONAL,"coffee_shop,cafe,food_store,food,point_of_interest,store,establishment",해운대구 카페,2026-03-16
ChIJjSyESAONaDURpbsC0dUK5xQ,디아트 커피,카페,카페,4.5,503,2,PRICE_LEVEL_MODERATE,대한민국 부산광역시 해운대구 청사포로128번길 12,해운대구,35.160738099999996,129.1918892,OPERATIONAL,"cafe,food,point_of_interest,establishment",해운대구 카페,2026-03-16
ChIJDWBHqgqNaDURiUIMlomqRx0,BRONI,커피숍/커피 전문점,카페,4.3,80,,,대한민국 부산광역시 해운대구 중동 524 15번지,해운대구,35.1608205,129.19338159999998,OPERATIONAL,"coffee_shop,cafe,food_store,food,store,point_of_interest,establishment",해운대구 카페,2026-03-16
ChIJBz9T2GuNaDUROI9MAy8VAxU,리베르타 청사포점,카페,카페,4.6,267,,,대한민국 부산광역시 해운대구 청사포로 137,해운대구,35.160891,129.1934966,OPERATIONAL,"cafe,food,point_of_interest,establishment",해운대구 카페,2026-03-16
ChIJt0iMFiONaDURDuHShDR8fuc,오션브리즈,커피 로스터리,카페,4.6,118,,,대한민국 부산광역시 해운대구 청사포로58번길 66,해운대구,35.1613317,129.18863249999998,OPERATIONAL,"coffee_roastery,cafeteria,cafe,food,point_of_interest,establishment",해운대구 카페,2026-03-16
ChIJ2dy6KQCTaDURiLNFZ6qO8Ks,블루보틀 부산민락,커피숍/커피 전문점,카페,4.6,116,3,PRICE_LEVEL_EXPENSIVE,"대한민국 부산광역시 수영구 민락수변로 243 1층,4층",수영구,35.1641051,129.12832939999998,OPERATIONAL,"coffee_shop,cafe,food_store,store,point_of_interest,food,establishment",해운대구 카페,2026-03-16
ChIJzyUaUlyNaDURUhQ0EcnnnWY,할리스커피 부산해운대점,커피숍/커피 전문점,카페,4.1,562,2,PRICE_LEVEL_MODERATE,대한민국 부산광역시 해운대구 해운대해변로 277,해운대구,35.1599138,129.161642,OPERATIONAL,"coffee_shop,cafe,food_store,store,point_of_interest,food,establishment",해운대구 카페,2026-03-16
ChIJ8bTaQ1yTaDUR4tF-m6El7nY,스타벅스 해운대동백점,커피숍/커피 전문점,카페,4.5,816,2,PRICE_LEVEL_MODERATE,대한민국 부산광역시 해운대구 해운대해변로 197,해운대구,35.1583864,129.1530573,OPERATIONAL,"coffee_shop,cafe,food_store,store,point_of_interest,food,establishment",해운대구 카페,2026-03-16
ChIJL06E5LWNaDURlfrPkreEJUE,수월경화,카페,카페,4.6,761,3,PRICE_LEVEL_EXPENSIVE,대한민국 부산광역시 해운대구 송정중앙로6번길 188 4층,해운대구,35.1761003,129.1965876,OPERATIONAL,"cafe,food,point_of_interest,establishment",해운대구 카페,2026-03-16
ChIJ99AaREaNaDUR59nT1VCxxeI,올드머그,커피숍/커피 전문점,카페,4.5,529,2,PRICE_LEVEL_MODERATE,대한민국 부산광역시 해운대구 송정구덕포길 122,해운대구,35.1703499,129.197057,OPERATIONAL,"coffee_shop,cafe,food_store,food,point_of_interest,store,establishment",해운대구 카페,2026-03-16
ChIJuUAIBDCNaDURkvZSEuowri0,프루터리 포레스트(Fruiterie Forest),요식업,카페,4.1,85,,,대한민국 부산광역시 해운대구 달맞이길 491 프루터리 포레스트,해운대구,35.1795944,129.1928461,OPERATIONAL,"dog_cafe,brunch_restaurant,cafe,dessert_shop,confectionery,restaurant,food_store,food,point_of_interest,store,establishment",해운대구 카페,2026-03-16
ChIJvQbzmGKNaDURGDolNCt_jkU,송정젬스톤B,카페,카페,4.3,1082,2,PRICE_LEVEL_MODERATE,대한민국 부산광역시 해운대구 송정구덕포길 100,해운대구,35.1717038,129.197608,OPERATIONAL,"cafe,food,point_of_interest,establishment",해운대구 카페,2026-03-16
ChIJrwf211KMaDURruXSo1u2U80,할리스커피 부산송정점,커피숍/커피 전문점,카페,4.3,1104,2,PRICE_LEVEL_MODERATE,대한민국 부산광역시 해운대구 송정광어골로 77,해운대구,35.1747375,129.19662069999998,OPERATIONAL,"coffee_shop,cafe,food_store,food,point_of_interest,store,establishment",해운대구 카페,2026-03-16
ChIJv_VmyWuNaDURhgZRD5i_Lso,스타벅스 해운대달맞이DT점,커피숍/커피 전문점,카페,4.1,852,2,PRICE_LEVEL_MODERATE,대한민국 부산광역시 해운대구 달맞이길 57,해운대구,35.1615296,129.1712148,OPERATIONAL,"coffee_shop,cafe,food_store,food,point_of_interest,store,establishment",해운대구 카페,2026-03-16
ChIJDwW1pJSNaDURt-e92sWIKSU,텐퍼센트커피 해운대달맞이점,카페,카페,4.6,18,,,대한민국 부산광역시 해운대구 달맞이길 58,해운대구,35.161183199999996,129.1711595,OPERATIONAL,"cafe,food,point_of_interest,establishment",해운대구 카페,2026-03-16
ChIJezWNXxONaDURmNQUBanIF98,메르메르(mermer),카페,카페,4.3,88,,,대한민국 부산광역시 해운대구 좌동순환로433번길 29,해운대구,35.1615141,129.1763776,OPERATIONAL,"cafe,food,point_of_interest,establishment",해운대구 카페,2026-03-16
ChIJdc3Uam6NaDURjoRWl0x4GnU,룩앳더바리스타 송정점,커피숍/커피 전문점,카페,4.5,131,,,대한민국 부산광역시 해운대구 송정구덕포길 118,해운대구,35.1706308,129.1973751,OPERATIONAL,"coffee_shop,cafe,food_store,food,point_of_interest,store,establishment",해운대구 카페,2026-03-16
ChIJFfO3hwyNaDURuI3Ez6g0S-g,컴포즈커피 장산점,커피숍/커피 전문점,카페,4.2,64,1,PRICE_LEVEL_INEXPENSIVE,대한민국 부산광역시 해운대구 해운대로 814,해운대구,35.169803699999996,129.1776504,OPERATIONAL,"coffee_shop,cafe,food_store,food,point_of_interest,store,establishment",해운대구 카페,2026-03-16
ChIJQ6EPH02MaDUR8QXoP556b_k,블루커피코리아,카페,카페,4.5,97,2,PRICE_LEVEL_MODERATE,대한민국 부산광역시 해운대구 송정광어골로 28,해운대구,35.1789834,129.19748769999998,OPERATIONAL,"cafe,food,point_of_interest,establishment",해운대구 카페,2026-03-16
ChIJD89dR9GNaDURjjPRO3PHa3I,Sangroksu bakery park 상록수 베이커리 파크,카페,카페,4.6,11,,,대한민국 부산광역시 해운대구 좌동로10번길 59,해운대구,35.167594099999995,129.1719826,OPERATIONAL,"cafe,food,point_of_interest,establishment",해운대구 카페,2026-03-16
ChIJedTKHRmNaDURvEg9rQf6_yc,투썸플레이스 부산송정힐스점,카페,카페,4.2,510,2,PRICE_LEVEL_MODERATE,대한민국 부산광역시 해운대구 송정광어골로 83,해운대구,35.1740456,129.1966798,OPERATIONAL,"cafe,food,point_of_interest,establishment",해운대구 카페,2026-03-16
ChIJZ1RDilmNaDURMffQ1X89GvE,정글비 해운대점,카페,카페,4.6,14,,,대한민국 부산광역시 KR 부산광역시 해운대구 해운대로 802 웅신씨네아트 A동 206호,해운대구,35.1691183,129.17666649999998,OPERATIONAL,"cafe,food,point_of_interest,establishment",해운대구 카페,2026-03-16
ChIJNZ0F6QyNaDURPe--obWYP8A,스타벅스 장산역점,커피숍/커피 전문점,카페,4.1,453,2,PRICE_LEVEL_MODERATE,대한민국 부산광역시 해운대구 해운대로 802,해운대구,35.1693638,129.1761301,OPERATIONAL,"coffee_shop,cafe,food_store,food,point_of_interest,store,establishment",해운대구 카페,2026-03-16
ChIJy0FmNa2NaDURcC_F9e6nPUM,쿠무다,카페,카페,4.5,118,,,대한민국 부산광역시 해운대구 송정광어골로 41,해운대구,35.1774297,129.1971882,OPERATIONAL,"cafe,food,point_of_interest,establishment",해운대구 카페,2026-03-16
ChIJNRWg4wyNaDURjwNSq0dqN2U,투썸플레이스 해운대장산역점,카페,카페,3.7,217,2,PRICE_LEVEL_MODERATE,대한민국 부산광역시 해운대구 양운로 56,해운대구,35.168446599999996,129.17693789999998,OPERATIONAL,"cafe,food,point_of_interest,establishment",해운대구 카페,2026-03-16
ChIJrW7r636NaDURxHfxtGEjTu0,Dancing Cup Haeudae Ocean Prime Branch,커피숍/커피 전문점,카페,4.6,7,,,대한민국 부산광역시 해운대구 중동 1203-4번지,해운대구,35.163951499999996,129.1685906,OPERATIONAL,"coffee_shop,cafe,food_store,food,point_of_interest,store,establishment",해운대구 카페,2026-03-16
ChIJtZ0mGlyNaDURAXbfj8pp32U,투썸플레이스 부산중동점,커피숍/커피 전문점,카페,4.2,19,2,PRICE_LEVEL_MODERATE,대한민국 부산광역시 해운대구 해운대로 743 정우빌딩,해운대구,35.1671125,129.1712856,OPERATIONAL,"coffee_shop,cafe,food_store,food,point_of_interest,store,establishment",해운대구 카페,2026-03-16
ChIJ4xBMej-NaDURWNbsoDvCRu4,딥플로우 커피,커피숍/커피 전문점,카페,4.8,32,,,대한민국 부산광역시 해운대구 우동1로20번길 37,해운대구,35.164616699999996,129.15840359999999,OPERATIONAL,"coffee_shop,cafe,food_store,food,point_of_interest,store,establishment",해운대구 카페,2026-03-16
ChIJV1KxZW2NaDURNZ2SY3CJyGI,하브커피(Hav Coffee),카페,카페,4.5,117,,,대한민국 부산광역시 해운대구 우동1로 34,해운대구,35.164450099999996,129.1571983,OPERATIONAL,"cafe,food,point_of_interest,establishment",해운대구 카페,2026-03-16
ChIJK0aMuXONaDUR1_pGctpWWA8,코오리마찌(こおりまち),커피숍/커피 전문점,카페,4.9,56,,,대한민국 부산광역시 해운대구 우동 449-3,해운대구,35.1662226,129.1583762,OPERATIONAL,"coffee_shop,cafe,food_store,food,point_of_interest,store,establishment",해운대구 카페,2026-03-16
ChIJQw1br0GNaDUR_PfFeHwLcD4,비커피,카페,카페,4.2,308,2,PRICE_LEVEL_MODERATE,대한민국 부산광역시 해운대구 우동1로20번길 27-37,해운대구,35.1647646,129.1575814,OPERATIONAL,"cafe,food,point_of_interest,establishment",해운대구 카페,2026-03-16
ChIJ_b5Sg7iSaDURQqbZuEAwgTs,투썸플레이스 벡스코점,커피숍/커피 전문점,카페,4.1,200,2,PRICE_LEVEL_MODERATE,대한민국 부산광역시 해운대구 센텀3로 32,해운대구,35.1666972,129.1338439,OPERATIONAL,"coffee_shop,cafe,food_store,food,point_of_interest,store,establishment",해운대구 카페,2026-03-16
ChIJz9H_lPCNaDURT6RjPh8ieLc,카페히토 cafehito,카페,카페,4.2,149,,,대한민국 부산광역시 해운대구 우동1로 21,해운대구,35.1637087,129.1563009,OPERATIONAL,"cafe,food,point_of_interest,establishment",해운대구 카페,2026-03-16
ChIJJ5X_GceSaDURKaF6f9mSlJY,스타벅스 센텀로점,커피숍/커피 전문점,카페,4.2,212,2,PRICE_LEVEL_MODERATE,대한민국 부산광역시 해운대구 센텀2로 10 센텀메디컬센타빌딩 1층,해운대구,35.167802099999996,129.1315549,OPERATIONAL,"coffee_shop,cafe,food_store,food,point_of_interest,store,establishment",해운대구 카페,2026-03-16
ChIJGzLreseSaDURo9EsLsGhQfs,스타벅스 센텀드림월드점,커피숍/커피 전문점,카페,4,321,2,PRICE_LEVEL_MODERATE,대한민국 부산광역시 해운대구 센텀2로 25 센텀드림월드 1층,해운대구,35.1670446,129.13279319999998,OPERATIONAL,"coffee_shop,cafe,food_store,food,point_of_interest,store,establishment",해운대구 카페,2026-03-16
ChIJ9Xh9KQCTaDURHpCUxgQRUkU,SUPER MATCHA CENTUM CITY,커피숍/커피 전문점,카페,3.8,11,,,대한민국 부산광역시 해운대구 우제2동,해운대구,35.1698563,129.1295202,OPERATIONAL,"coffee_shop,cafe,food_store,food,point_of_interest,store,establishment",해운대구 카페,2026-03-16
ChIJJ_RxLQCTaDURodoCOfRI5qU,Osulloc Shinsegae Dept. Store Centum City Branch 오설록 신세계백화점센텀시티점ch,커피숍/커피 전문점,카페,4.5,8,,,대한민국 부산광역시 해운대구 센텀동로 35,해운대구,35.1691662,129.13058569999998,OPERATIONAL,"coffee_shop,cafe,food_store,food,point_of_interest,store,establishment",해운대구 카페,2026-03-16
ChIJe_NOziKNaDURLw3-_Sf_Iw0,애코랜드(a.co land),카페,카페,4.4,46,,,대한민국 부산광역시 해운대구 중동 1010 보림마리나센터 5층 애코랜드,해운대구,35.157630499999996,129.1729243,OPERATIONAL,"cafe,dog_cafe,food,point_of_interest,establishment",해운대구 카페,2026-03-16
ChIJyRw-tN-NaDURNJxYVVMhTQc,청사포바다라면카페 Cheongsapo Badaramyun Cafe,음식점,카페,4.9,108,,,대한민국 부산광역시 해운대구 청사포로 125-1 4층,해운대구,35.160793,129.1926372,OPERATIONAL,"restaurant,coffee_shop,ramen_restaurant,cafe,japanese_restaurant,food_store,store,food,point_of_interest,establishment",해운대구 카페,2026-03-16
ChIJPWoJM2yNaDURYDpEMm4wA4w,심미안,카페,카페,4.2,61,,,대한민국 부산광역시 해운대구 청사포로 70-29,해운대구,35.1617136,129.188696,OPERATIONAL,"cafe,coffee_shop,food_store,store,food,point_of_interest,establishment",해운대구 카페,2026-03-16
ChIJ6d0WpzSNaDUReMe0WwltTK8,루프탑키키,커피숍/커피 전문점,카페,4.8,63,,,대한민국 부산광역시 해운대구,해운대구,35.1606137,129.1705493,OPERATIONAL,"coffee_shop,cafe,food_store,store,food,point_of_interest,establishment",해운대구 카페,2026-03-16
ChIJKcxUQgCNaDURJYqb4xxvdM4,自然島鹽麵包,커피숍/커피 전문점,카페,4.1,42,,,"대한민국 Busan, Haeundae-gu, Dalmaji-gil 62beon-gil, 12-21층",,35.1603382,129.1706577,OPERATIONAL,"coffee_shop,cafe,food_store,store,food,point_of_interest,establishment",해운대구 카페,2026-03-16
ChIJPT5toF6NaDURnWQQ5J2A8WY,스타벅스 하버타운점,커피숍/커피 전문점,카페,4.2,729,2,PRICE_LEVEL_MODERATE,대한민국 부산광역시 해운대구 해운대해변로 257,해운대구,35.1596932,129.1595939,OPERATIONAL,"coffee_shop,cafe,food_store,food,store,point_of_interest,establishment",해운대구 카페,2026-03-16
ChIJXeMu_DeNaDUR6RDV4SDyyi0,스타벅스 그랜드 조선 부산점,커피숍/커피 전문점,카페,4.6,512,,,대한민국 부산광역시 해운대구 해운대해변로 292,해운대구,35.1599338,129.1627595,OPERATIONAL,"coffee_shop,cafe,food_store,food,store,point_of_interest,establishment",해운대구 카페,2026-03-16
ChIJMevgV2yNaDURBFxAGgHnx1g,컴포즈커피 해운대비치점,커피숍/커피 전문점,카페,3.7,21,1,PRICE_LEVEL_INEXPENSIVE,대한민국 부산광역시 해운대구 해운대해변로 271,해운대구,35.15982960000001,129.16096679999998,OPERATIONAL,"coffee_shop,cafe,food_store,food,store,point_of_interest,establishment",해운대구 카페,2026-03-16
ChIJ35pZGACNaDUR7CTGmcciUfA,샤브올데이 부산해운대점,일본 음식점,음식점,4.8,337,,,대한민국 부산광역시 해운대구 달맞이길 30,해운대구,35.1607646,129.168143,OPERATIONAL,"japanese_restaurant,restaurant,food,point_of_interest,establishment",부산 해운대구 맛집,2026-03-16
ChIJNSlQcQCNaDURqLcYiYxEwp0,해운대바다김밥,한식당,음식점,5,36,,,대한민국 부산광역시 해운대구 중동1로 33-1,해운대구,35.162524999999995,129.1632447,OPERATIONAL,"korean_restaurant,restaurant,food,point_of_interest,establishment",부산 해운대구 맛집,2026-03-16
ChIJu7dskD6NaDURMcYp639yCaM,운단수산,한식당,음식점,4.9,144,,,대한민국 부산광역시 해운대구 중동2로 31,해운대구,35.164573499999996,129.1632075,OPERATIONAL,"korean_restaurant,sushi_restaurant,tourist_attraction,bar,japanese_restaurant,restaurant,food,point_of_interest,establishment",부산 해운대구 맛집,2026-03-16
ChIJs2zg_puNaDURf6PXyaHDNKM,칸다소바 해운대점,일본 음식점,음식점,4.7,228,2,PRICE_LEVEL_MODERATE,대한민국 부산광역시 해운대구 구남로30번길 8-3 1층,해운대구,35.1612855,129.1600933,OPERATIONAL,"japanese_restaurant,restaurant,food,point_of_interest,establishment",부산 해운대구 맛집,2026-03-16
ChIJR1VVGGGNaDURxVFWHEVJlaU,의령식당,한식당,음식점,4.5,528,1,PRICE_LEVEL_INEXPENSIVE,대한민국 부산광역시 해운대구 우동1로50번길 15,해운대구,35.166423,129.1583027,OPERATIONAL,"korean_restaurant,restaurant,food,point_of_interest,establishment",부산 해운대구 맛집,2026-03-16
ChIJu9l6a5eNaDURSJoHC9wQ_l0,기요항 해운대점,일본 음식점,음식점,4.6,137,,,대한민국 부산광역시 해운대구 해운대로570번길 46 신라스테이호텔 1층,해운대구,35.1597884,129.1588329,OPERATIONAL,"japanese_restaurant,restaurant,food,point_of_interest,establishment",부산 해운대구 맛집,2026-03-16
ChIJhwlLSeWNaDUROmL0VzgpEe4,남천집 중동점,한식당,음식점,4.9,151,,,대한민국 부산광역시 해운대구 중제1동 1376-9,해운대구,35.1637158,129.1637941,OPERATIONAL,"korean_restaurant,restaurant,food,point_of_interest,establishment",부산 해운대구 맛집,2026-03-16
ChIJm8l0Oe6NaDUR9frpPGGf_dE,메리윤,음식점,음식점,5,232,,,대한민국 부산광역시 해운대구 양운로 55 1층,해운대구,35.168187599999996,129.176247,OPERATIONAL,"restaurant,food,point_of_interest,establishment",부산 해운대구 맛집,2026-03-16
ChIJqW8hCACNaDURKdnF6pCv-MY,해운대어가횟집,해산물 요리 전문식당,음식점,4.8,60,,,대한민국 부산광역시 해운대구 중동2로 22 1층,해운대구,35.1637632,129.1639783,OPERATIONAL,"seafood_restaurant,restaurant,food,point_of_interest,establishment",부산 해운대구 맛집,2026-03-16
ChIJEVd-d_ONaDUReRc_Ax22Cp0,양상국 해운대점,숯불구이/바베큐전문점,음식점,4.8,42,,,대한민국 부산광역시 해운대구 해운대로570번길 16 2층,해운대구,35.1604281,129.1556895,OPERATIONAL,"barbecue_restaurant,restaurant,food,point_of_interest,establishment",부산 해운대구 맛집,2026-03-16
ChIJofoWUQCNaDURDqIZjAjYMU8,로우앤스윗 로스터리 (Raw&Sweet Roastery Cafe),카페,카페,5,153,,,대한민국 부산광역시 해운대구 우동1로20번길 19 1층,해운대구,35.1642353,129.15767580000002,OPERATIONAL,"cafe,coffee_shop,coffee_roastery,food_store,store,food,point_of_interest,establishment",부산 해운대구 카페,2026-03-16
ChIJizZDCgSNaDURZq9q8PxyGO0,듀플릿 해운대 해리단길점 DUPLIT Stylish Café in Haeundae/ DUPLIT釜山海云台咖啡馆推荐 / DUPLIT 해운대구글 ヘウンデおしゃれカフェ,카페테리아,음식점,4.8,331,,,대한민국 부산광역시 해운대구 우동1로20번길 27-13,해운대구,35.164305399999996,129.1576309,OPERATIONAL,"cafeteria,point_of_interest,establishment",부산 해운대구 카페,2026-03-16
ChIJkYsDdHuNaDURO4LZoT86FKs,라운지 앤 바,커피숍/커피 전문점,카페,4.8,20,,,대한민국 부산광역시 해운대구 해운대해변로 292,해운대구,35.1600161,129.1630504,OPERATIONAL,"coffee_shop,cafe,food_store,store,food,point_of_interest,establishment",부산 해운대구 카페,2026-03-16
ChIJadSpEwCNaDURrHr0pSAUNXM,카페드크래프트베이커리 해운대미포점,커피숍/커피 전문점,카페,4.3,45,,,대한민국 부산광역시 해운대구 달맞이길62번가길 27-8,해운대구,35.15883240000001,129.171773,OPERATIONAL,"coffee_shop,cafe,food_store,store,food,point_of_interest,establishment",부산 해운대구 카페,2026-03-16
ChIJ8RCWeoqNaDURVyNuI8Wk0sw,니카이미세,커피숍/커피 전문점,카페,4.8,48,,,대한민국 부산광역시 해운대구 우동1로 43 2 층,해운대구,35.165331699999996,129.1573348,OPERATIONAL,"coffee_shop,cafe,food_store,store,food,point_of_interest,establishment",부산 해운대구 카페,2026-03-16
ChIJVQb76eCNaDURD90QM7EGZio,부산카페 드링클럽 해운대점 | Busan Cafe Drinclub | 釜山咖啡廳 Drinclub,카페,카페,5,14,,,대한민국 부산광역시 해운대구 해운대로 620 라뮤에뜨 1층 119호,해운대구,35.162976799999996,129.158492,OPERATIONAL,"cafe,coffee_shop,dessert_shop,confectionery,food_store,store,food,point_of_interest,establishment",부산 해운대구 카페,2026-03-16
ChIJBxuGQq2NaDURVrMKGr5SpFA,금송덕미,커피숍/커피 전문점,카페,4.7,26,,,대한민국 부산광역시 해운대구 우동1로38번가길 19 2층,해운대구,35.1648546,129.15854539999998,OPERATIONAL,"coffee_shop,cafe,food_store,store,food,point_of_interest,establishment",부산 해운대구 카페,2026-03-16
ChIJg_f70G_raDURpQVzaHgmouc,송정3대국밥,한식당,음식점,4,4273,1,PRICE_LEVEL_INEXPENSIVE,대한민국 부산광역시 부산진구 서면로68번길 33,부산진구,35.1556037,129.0585412,OPERATIONAL,"korean_restaurant,restaurant,food,point_of_interest,establishment",부산진구 음식점,2026-03-16
ChIJ2cgg9HHraDUR_k9Ndt5zjow,맛찬들왕소금구이 서면점,한식 고기구이 레스토랑,음식점,4.3,2104,2,PRICE_LEVEL_MODERATE,대한민국 부산광역시 부산진구 중앙대로691번가길 24-3,부산진구,35.1554917,129.0556616,OPERATIONAL,"korean_barbecue_restaurant,korean_restaurant,restaurant,food,point_of_interest,establishment",부산진구 음식점,2026-03-16
ChIJVze0S3DraDURTULdlBf7c5w,개미집 서면1번가직영점,한식당,음식점,4.2,2614,2,PRICE_LEVEL_MODERATE,대한민국 부산광역시 부산진구 신천대로62번길 73,부산진구,35.1540323,129.0582795,OPERATIONAL,"korean_restaurant,restaurant,food,point_of_interest,establishment",부산진구 음식점,2026-03-16
ChIJW3hXTn_raDUR_QuMi5u8TWo,83 해치,숯불구이/바베큐전문점,음식점,4.1,341,,,대한민국 부산광역시 부산진구 서전로 11 1 1F,부산진구,35.1580029,129.0611124,OPERATIONAL,"barbecue_restaurant,restaurant,food,point_of_interest,establishment",부산진구 음식점,2026-03-16
ChIJLbbcaWjraDURdkyfynhGRSY,에그드랍 서면롯데후문점,샌드위치 가게,음식점,4.4,592,2,PRICE_LEVEL_MODERATE,대한민국 부산광역시 부산진구 부전로66번길 12,부산진구,35.1557765,129.0553859,OPERATIONAL,"sandwich_shop,restaurant,food,point_of_interest,establishment",부산진구 음식점,2026-03-16
ChIJA-dkTW_raDUR0YFQ1gI-zZc,교촌치킨 서면점,테이크아웃 전문 레스토랑,음식점,4.1,978,2,PRICE_LEVEL_MODERATE,대한민국 부산광역시 부산진구 중앙대로 745-1,부산진구,35.1592422,129.0600543,OPERATIONAL,"fast_food_restaurant,meal_takeaway,restaurant,food,point_of_interest,establishment",부산진구 음식점,2026-03-16
ChIJIUFltm_raDURkyY6VN83K9M,삼오정,한식당,음식점,4.5,927,2,PRICE_LEVEL_MODERATE,대한민국 부산광역시 부산진구 서면로68번길 11,부산진구,35.1565813,129.0584166,OPERATIONAL,"korean_restaurant,restaurant,food,point_of_interest,establishment",부산진구 음식점,2026-03-16
ChIJd8wKTI3raDURxsehYr2s2DQ,이재모피자 서면점,피자 전문점,음식점,4.4,200,,,대한민국 부산광역시 부산진구 전포대로209번길 21,부산진구,35.1553369,129.0640056,OPERATIONAL,"pizza_restaurant,restaurant,food,point_of_interest,establishment",부산진구 음식점,2026-03-16
ChIJA7yI4HHraDURh3CsZijo5N4,제주가,해산물 요리 전문식당,음식점,4,672,2,PRICE_LEVEL_MODERATE,대한민국 부산광역시 부산진구 부전로66번길 36,부산진구,35.1557981,129.0566887,OPERATIONAL,"seafood_restaurant,restaurant,food,point_of_interest,establishment",부산진구 음식점,2026-03-16
ChIJE4FdlmXraDURf16Mk73NgVg,고기굽는남자 서면점,한식 고기구이 레스토랑,음식점,4.5,399,,,대한민국 부산광역시 부산진구 동천로95번길 13,부산진구,35.157167699999995,129.0615061,OPERATIONAL,"korean_barbecue_restaurant,korean_restaurant,restaurant,food,point_of_interest,establishment",부산진구 음식점,2026-03-16
ChIJZVfIz2_raDURX46kdZBMm8Y,수영본가돼지국밥,한식당,음식점,4.3,710,2,PRICE_LEVEL_MODERATE,대한민국 부산광역시 부산진구 서면로68번길 25,부산진구,35.1559205,129.0584735,OPERATIONAL,"korean_restaurant,restaurant,food,point_of_interest,establishment",부산진구 음식점,2026-03-16
ChIJhZnYxW_raDURN7EqvDihReM,포항돼지국밥,한식당,음식점,4.1,2053,2,PRICE_LEVEL_MODERATE,대한민국 부산광역시 부산진구 서면로68번길 27,부산진구,35.1557935,129.0585494,OPERATIONAL,"korean_restaurant,restaurant,food,point_of_interest,establishment",부산진구 음식점,2026-03-16
ChIJZ7wti27raDURs_38HHO78SE,기장손칼국수,한식당,음식점,4.1,1974,1,PRICE_LEVEL_INEXPENSIVE,대한민국 부산광역시 부산진구 서면로 56,부산진구,35.1554833,129.05828879999999,OPERATIONAL,"korean_restaurant,restaurant,food,point_of_interest,establishment",부산진구 음식점,2026-03-16
ChIJe1QMOBvraDUR9__2s01MxDE,신촌양푼이갈비찜 서면본점,음식점,음식점,4.8,1687,2,PRICE_LEVEL_MODERATE,대한민국 부산광역시 부산진구 서전로10번길 27-2,부산진구,35.1564367,129.06029279999998,OPERATIONAL,"restaurant,food,point_of_interest,establishment",부산진구 음식점,2026-03-16
ChIJEXjwpRbraDUR0myJOgfzBDo,태태태,음식점,음식점,4.8,607,,,대한민국 부산광역시 부산진구 서전로10번길 22-9,부산진구,35.157044,129.05991219999999,OPERATIONAL,"restaurant,vegan_restaurant,vegetarian_restaurant,asian_fusion_restaurant,fusion_restaurant,asian_restaurant,bar,korean_restaurant,food,point_of_interest,establishment",부산진구 음식점,2026-03-16
ChIJWToAOQXraDURt20yTGkgAiw,올드맨션(Old Mansion),한식 고기구이 레스토랑,음식점,4.9,918,,,대한민국 부산광역시 부산진구 전포대로209번길 17-6 1층,부산진구,35.1551648,129.06448899999998,OPERATIONAL,"korean_barbecue_restaurant,korean_restaurant,restaurant,food,point_of_interest,establishment",부산진구 음식점,2026-03-16
ChIJaTVB5GXraDUROk5HSLICtFs,부산댁증산점,한식 고기구이 레스토랑,음식점,4.5,218,2,PRICE_LEVEL_MODERATE,대한민국 부산광역시 부산진구 동천로107번길 14,부산진구,35.1583999,129.06153659999998,OPERATIONAL,"korean_barbecue_restaurant,korean_restaurant,restaurant,food,point_of_interest,establishment",부산진구 음식점,2026-03-16
ChIJUzZwLSrraDUR8odZlFFq1b0,꽃살집 전포점,한식당,음식점,5,1304,,,대한민국 부산광역시 부산진구 서전로46번길 64,부산진구,35.154876099999996,129.06465169999998,OPERATIONAL,"korean_restaurant,restaurant,food,point_of_interest,establishment",부산진구 음식점,2026-03-16
ChIJv-BtUWXraDUR4VWJcrjJtGo,맥도날드 서면3호점,패스트푸드점,음식점,4.1,907,2,PRICE_LEVEL_MODERATE,대한민국 부산광역시 부산진구 중앙대로692번길 33 1F,부산진구,35.1546595,129.061075,OPERATIONAL,"fast_food_restaurant,restaurant,food,point_of_interest,establishment",부산진구 음식점,2026-03-16
ChIJUQoUE3DraDURMwQ0N3ty4Bw,밀양순대돼지국밥,한식당,음식점,4.1,685,2,PRICE_LEVEL_MODERATE,대한민국 부산광역시 부산진구 신천대로50번길 65,부산진구,35.153742799999996,129.0598114,OPERATIONAL,"korean_restaurant,restaurant,food,point_of_interest,establishment",부산진구 음식점,2026-03-16
ChIJVwYjVmnraDURf7tm1btsqm0,춘하추동 밀면 서면본점,한식당,음식점,3.9,1827,2,PRICE_LEVEL_MODERATE,대한민국 부산광역시 부산진구 서면문화로 48-1,부산진구,35.1614729,129.0555363,OPERATIONAL,"korean_restaurant,restaurant,point_of_interest,food,establishment",부산진구 음식점,2026-03-16
ChIJgXPv-2fraDURSI5XQGjS9UM,명란 김밥,음식점,음식점,4.6,74,,,대한민국 부산광역시 KR 부산광역시 부산진구 부전동 573-3번지 32563동 67호 호 71호,부산진구,35.1631101,129.0610427,OPERATIONAL,"restaurant,point_of_interest,food,establishment",부산진구 음식점,2026-03-16
ChIJi83mgWjraDUR1122tfIZgC8,고래사어묵 부전본점,일본 음식점,음식점,4.3,346,,,대한민국 부산광역시 부산진구 중앙대로769번길 17,부산진구,35.1612309,129.0606349,OPERATIONAL,"japanese_restaurant,restaurant,point_of_interest,food,establishment",부산진구 음식점,2026-03-16
ChIJaYkIuGzraDURCyZcOLrSrPA,외식1번가 부산본점,한식 고기구이 레스토랑,음식점,4.2,2274,,,대한민국 부산광역시 부산진구 신천대로 222,부산진구,35.1617853,129.0510699,OPERATIONAL,"korean_barbecue_restaurant,korean_restaurant,restaurant,point_of_interest,food,establishment",부산진구 음식점,2026-03-16
ChIJkfFSoG7raDURMZZxWs9TfIs,정동진 해물탕・해물찜 본점,해산물 요리 전문식당,음식점,3.9,910,2,PRICE_LEVEL_MODERATE,대한민국 부산광역시 부산진구 서면문화로 37 2-3F,부산진구,35.160449,129.0554158,OPERATIONAL,"seafood_restaurant,restaurant,point_of_interest,food,establishment",부산진구 음식점,2026-03-16
ChIJPVynSFzraDUR3hvcupIR9s8,맥도날드 범전DT점,패스트푸드점,음식점,4.2,675,2,PRICE_LEVEL_MODERATE,대한민국 부산광역시 부산진구 중앙대로 823,부산진구,35.1653946,129.06430240000003,OPERATIONAL,"fast_food_restaurant,restaurant,point_of_interest,food,establishment",부산진구 음식점,2026-03-16
ChIJc_Zg88jraDUR7AF3C_xLyHQ,강갈비탕KANG GALBI-TANG,음식점,음식점,5,641,,,대한민국 부산광역시 부산진구 1층,부산진구,35.1605525,129.05666689999998,OPERATIONAL,"restaurant,korean_restaurant,point_of_interest,food,establishment",부산진구 음식점,2026-03-16
ChIJZ8FvhV3raDURmgnT7TZDh8I,해신킹크랩,한식당,음식점,4,583,,,대한민국 부산광역시 부산진구 전포대로275번길 65,부산진구,35.162960399999996,129.06395469999998,OPERATIONAL,"sushi_restaurant,seafood_restaurant,korean_restaurant,food_store,japanese_restaurant,store,restaurant,point_of_interest,food,establishment",부산진구 음식점,2026-03-16
ChIJ-ZYELBGTaDUR743lj7zFZPI,식당3선 연제점,한식당,음식점,4.3,121,,,대한민국 부산광역시 연제구 거제대로 209,연제구,35.186940199999995,129.0718622,OPERATIONAL,"korean_restaurant,restaurant,point_of_interest,food,establishment",부산진구 음식점,2026-03-16
ChIJOyKwsrfraDURflttYcDlSvE,생생김밥,간이음식점,음식점,4.6,38,,,대한민국 부산광역시 부산진구 새싹로14번길 94,부산진구,35.162689799999995,129.0608632,OPERATIONAL,"snack_bar,meal_takeaway,restaurant,point_of_interest,food,establishment",부산진구 음식점,2026-03-16
ChIJSTncLWvraDURNzkaRDyDStI,더파티 서면점,뷔페 식당,음식점,3.7,554,3,PRICE_LEVEL_EXPENSIVE,대한민국 부산광역시 부산진구 신천대로 252,부산진구,35.164172199999996,129.0507169,OPERATIONAL,"buffet_restaurant,restaurant,point_of_interest,food,establishment",부산진구 음식점,2026-03-16
ChIJS_TY3KnsaDURqYpz3mBwlVo,늘해랑 수육 국밥,한식당,음식점,4.3,687,2,PRICE_LEVEL_MODERATE,대한민국 부산광역시 부산진구 중앙대로928번길 12,부산진구,35.172249799999996,129.0716699,OPERATIONAL,"korean_restaurant,restaurant,point_of_interest,food,establishment",부산진구 음식점,2026-03-16
ChIJgXPv-2fraDURDpIJynBjBWg,부전떡갈비,음식점,음식점,4.8,27,,,대한민국 부산광역시 부산진구 부전동 573-3,부산진구,35.163325,129.0610288,OPERATIONAL,"restaurant,point_of_interest,food,establishment",부산진구 음식점,2026-03-16
ChIJcZ73HUrraDURA67M-Mnw354,삼성 밀면,한식당,음식점,4.3,454,2,PRICE_LEVEL_MODERATE,대한민국 부산광역시 부산진구 월드컵대로449번길 47,부산진구,35.181424299999996,129.0511677,OPERATIONAL,"korean_restaurant,restaurant,point_of_interest,food,establishment",부산진구 음식점,2026-03-16
ChIJM8VabaGUaDURNHGbbMGh35A,한방장어구이 사직거제점,일본 음식점,음식점,4,799,2,PRICE_LEVEL_MODERATE,대한민국 부산광역시 연제구 아시아드대로 8,연제구,35.1860238,129.0707634,OPERATIONAL,"japanese_restaurant,restaurant,point_of_interest,food,establishment",부산진구 음식점,2026-03-16
ChIJz72ndhrraDURAnsTBsuzG0Q,맥도날드 당감DT점,패스트푸드점,음식점,3.8,449,2,PRICE_LEVEL_MODERATE,대한민국 부산광역시 부산진구 동평로 91,부산진구,35.1657222,129.0395342,OPERATIONAL,"fast_food_restaurant,restaurant,point_of_interest,food,establishment",부산진구 음식점,2026-03-16
ChIJHZk_9LPraDURRMtJQft4hDI,초원농원 양정점,숯불구이/바베큐전문점,음식점,4.3,210,,,대한민국 부산광역시 부산진구 거제대로 70 국제식품빌딩 3층-4층,부산진구,35.1748528,129.0681643,OPERATIONAL,"barbecue_restaurant,restaurant,point_of_interest,food,establishment",부산진구 음식점,2026-03-16
ChIJje0PbzLraDURPEf8841X_VA,코지하우스 부산시민공원점,서양음식전문점,음식점,4.4,62,,,대한민국 부산광역시 부산진구 동평로 334-2,부산진구,35.1741763,129.0617914,OPERATIONAL,"western_restaurant,restaurant,point_of_interest,food,establishment",부산진구 음식점,2026-03-16
ChIJH5cOmsXraDURkfaje80IdF4,장덕풍천장어 시청점,일본 음식점,음식점,4.4,87,,,대한민국 부산광역시 연제구 거제대로 94,연제구,35.1769201,129.0682688,OPERATIONAL,"japanese_restaurant,restaurant,point_of_interest,food,establishment",부산진구 음식점,2026-03-16
ChIJASJOvWrraDURLoo1eTSavZc,부산갈매기,숯불구이/바베큐전문점,음식점,4.1,77,,,대한민국 부산광역시 부산진구 새싹로 115,부산진구,35.1666802,129.051496,OPERATIONAL,"barbecue_restaurant,restaurant,point_of_interest,food,establishment",부산진구 음식점,2026-03-16
ChIJ72AI93HraDURNBhrXTwSV_w,부산쪽쪽갈비,한식 고기구이 레스토랑,음식점,4.3,698,2,PRICE_LEVEL_MODERATE,대한민국 부산광역시 부산진구 중앙대로691번가길 32,부산진구,35.1557141,129.0556178,OPERATIONAL,"korean_barbecue_restaurant,korean_restaurant,restaurant,food,point_of_interest,establishment",부산진구 음식점,2026-03-16
ChIJSxYmXG7raDURFLrZKvimNmk,이삭토스트 부산롯데서면점,음식점,음식점,4.2,368,1,PRICE_LEVEL_INEXPENSIVE,대한민국 부산광역시 부산진구 가야대로 779-2,부산진구,35.1578928,129.0569553,OPERATIONAL,"restaurant,food,point_of_interest,establishment",부산진구 음식점,2026-03-16
ChIJNzrctGjraDURQw3vXHJ5hgI,영자면옥 손칼국수 본점,한식당,음식점,4.2,953,1,PRICE_LEVEL_INEXPENSIVE,대한민국 부산광역시 부산진구 새싹로8번길 29,부산진구,35.1596063,129.0595404,OPERATIONAL,"korean_restaurant,restaurant,food,point_of_interest,establishment",부산진구 음식점,2026-03-16
ChIJPRvWQE3raDURMv40TZLhcAI,제줏간 부산서면점,한식당,음식점,4.9,107,,,대한민국 부산광역시 부산진구 중앙대로691번가길 11,부산진구,35.1548563,129.0556722,OPERATIONAL,"korean_restaurant,restaurant,food,point_of_interest,establishment",부산진구 음식점,2026-03-16
ChIJn2JaCADraDUROTBKrZ34nEI,水邊最高豬肉湯飯西面店,한식당,음식점,4.3,17,,,대한민국 부산광역시 부산진구 부전동 503-159F,부산진구,35.156641799999996,129.0560026,OPERATIONAL,"korean_restaurant,restaurant,food,point_of_interest,establishment",부산진구 음식점,2026-03-16
ChIJ9_qfTx_raDURrGn-vJoQ2GQ,고짚 서면본점,숯불구이/바베큐전문점,음식점,4.8,415,,,대한민국 부산광역시 부산진구 부전로 64,부산진구,35.1557307,129.05490129999998,OPERATIONAL,"barbecue_restaurant,restaurant,food,point_of_interest,establishment",부산진구 음식점,2026-03-16
ChIJ3wTeYZrraDURozDZg_Op_pI,청기와타운 서면점,한식 고기구이 레스토랑,음식점,4.9,262,,,대한민국 부산광역시 부산진구 중앙대로691번길 46,부산진구,35.15456530000001,129.0565377,OPERATIONAL,"korean_barbecue_restaurant,korean_restaurant,restaurant,food,point_of_interest,establishment",부산진구 음식점,2026-03-16
ChIJ4aeC3HHraDURYw3VQp-xugA,킹콩부대찌개 서면롯데점,한식당,음식점,4.3,445,2,PRICE_LEVEL_MODERATE,대한민국 부산광역시 부산진구 가야대로784번길 46-1,부산진구,35.155371,129.057043,OPERATIONAL,"korean_restaurant,restaurant,food,point_of_interest,establishment",부산진구 음식점,2026-03-16
ChIJV1TfJW_raDURdW8wPlVEazg,백년가마솥통닭,음식점,음식점,4.2,227,,,대한민국 부산광역시 부산진구 새싹로14번길 4,부산진구,35.159309799999996,129.0583621,OPERATIONAL,"restaurant,food,point_of_interest,establishment",부산진구 음식점,2026-03-16
ChIJt6JgHHLraDUR86z0mB1qG5U,오복삼계탕,한식당,음식점,3.9,490,2,PRICE_LEVEL_MODERATE,대한민국 부산광역시 부산진구 부전로66번길 8,부산진구,35.1557953,129.0551985,OPERATIONAL,"korean_restaurant,restaurant,food,point_of_interest,establishment",부산진구 음식점,2026-03-16
ChIJy13vCJrraDURouNIqIAusW8,준오헤어 서면역점ㅣ부산서면미용실ㅣBusan Review No. 1 Hair SalonㅣKorean Busan hair salon JUNOHAIRㅣJUNO 髮型設計所,미용실,음식점,4.9,822,,,대한민국 부산광역시 부산진구 서면로 71 2층,부산진구,35.1571412,129.0575613,OPERATIONAL,"beautician,hair_salon,department_store,makeup_artist,hotel,hair_care,lodging,service,korean_restaurant,restaurant,food,point_of_interest,store,establishment",부산진구 음식점,2026-03-16
ChIJP19PJW7raDURA8regfy-ZrQ,홍콩반점0410 부산서면롯데점,중국 음식점,음식점,3.9,213,1,PRICE_LEVEL_INEXPENSIVE,대한민국 부산광역시 부산진구 가야대로784번길 27 2F,부산진구,35.1562438,129.0573781,OPERATIONAL,"chinese_restaurant,restaurant,food,point_of_interest,establishment",부산진구 음식점,2026-03-16
ChIJM5E-im3raDURUz0pNI0_GRI,BHC치킨 부산부전점,음식점,음식점,4.1,67,2,PRICE_LEVEL_MODERATE,대한민국 부산광역시 부산진구 가야대로 754 한솔폴라리스 1층 106호,부산진구,35.15712370000001,129.0538825,OPERATIONAL,"restaurant,food,point_of_interest,establishment",부산진구 음식점,2026-03-16
ChIJFTUej0rraDUReeueSglkrkA,보배반점 서면점,중국 음식점,음식점,4.7,178,,,대한민국 부산광역시 부산진구 부전로66번길 40,부산진구,35.1557306,129.0569241,OPERATIONAL,"chinese_restaurant,restaurant,food,point_of_interest,establishment",부산진구 음식점,2026-03-16
ChIJ6Qnpkm7raDURjwQ_4lUA7ys,사미헌,한식당,음식점,4.2,1213,3,PRICE_LEVEL_EXPENSIVE,대한민국 부산광역시 부산진구 서면문화로 19,부산진구,35.1589917,129.05664149999998,OPERATIONAL,"korean_restaurant,restaurant,food,point_of_interest,establishment",부산진구 음식점,2026-03-16
ChIJ9WAzuFmTaDUR6iJvft_flTo,외식일번가 연제점,한식당,음식점,4.1,1769,2,PRICE_LEVEL_MODERATE,대한민국 부산광역시 연제구 월드컵대로 201,연제구,35.187847399999995,129.0743914,OPERATIONAL,"korean_restaurant,restaurant,food,point_of_interest,establishment",부산진구 음식점,2026-03-16
ChIJR8lox0OTaDURdIf7apNt9Oo,갓파스시 연산점,스시/초밥집,음식점,3.6,1627,2,PRICE_LEVEL_MODERATE,대한민국 부산광역시 연제구 반송로 44,연제구,35.1885438,129.0853852,OPERATIONAL,"sushi_restaurant,japanese_restaurant,restaurant,food,point_of_interest,establishment",부산진구 음식점,2026-03-16
ChIJt-pgM_3raDURBxMJT4V-BtQ,막창꽃필무렵,한식당,음식점,5,234,,,대한민국 부산광역시 부산진구 전포대로 265 막창꽃필무렵 1층,부산진구,35.1604185,129.0650945,OPERATIONAL,"korean_restaurant,restaurant,food,point_of_interest,establishment",부산진구 음식점,2026-03-16
ChIJV3mfH1qTaDURxYLi0itNelI,교촌치킨 시청점,음식점,음식점,4.1,34,2,PRICE_LEVEL_MODERATE,대한민국 부산광역시 연제구 거제천로 147 1층,연제구,35.186851499999996,129.0764211,OPERATIONAL,"restaurant,food,point_of_interest,establishment",부산진구 음식점,2026-03-16
ChIJrVRKSleTaDURrcNOhsW-b9c,맛고 연산시청본점,음식점,음식점,4.6,47,,,대한민국 부산광역시 연제구 고분로13번길 9,연제구,35.1862752,129.08412819999998,OPERATIONAL,"restaurant,barbecue_restaurant,food,point_of_interest,establishment",부산진구 음식점,2026-03-16
ChIJ68fvaQCTaDURvKvR_g-HMZM,샤브20 동래점,일본 음식점,음식점,4.3,12,,,대한민국 부산광역시 연제구 거제대로 295,연제구,35.1924972,129.0780866,OPERATIONAL,"japanese_restaurant,restaurant,food,point_of_interest,establishment",부산진구 음식점,2026-03-16
ChIJ84-I4lOTaDUR9FSsNYd9jUI,맥도날드 시청DT점,패스트푸드점,음식점,4,694,2,PRICE_LEVEL_MODERATE,대한민국 부산광역시 연제구 중앙대로 1031,연제구,35.1807489,129.077058,OPERATIONAL,"fast_food_restaurant,restaurant,food,point_of_interest,establishment",부산진구 음식점,2026-03-16
ChIJQQ9SF1qTaDURXzYp_lvEwz4,독도참가자미,해산물 요리 전문식당,음식점,4.1,543,3,PRICE_LEVEL_EXPENSIVE,대한민국 부산광역시 연제구 거제천로154번길 13,연제구,35.1869863,129.0777042,OPERATIONAL,"seafood_restaurant,restaurant,food,point_of_interest,establishment",부산진구 음식점,2026-03-16
ChIJLzsfTEWTaDURMGbSGEBgeV0,벌떼집,해산물 요리 전문식당,음식점,4.1,261,1,PRICE_LEVEL_INEXPENSIVE,대한민국 부산광역시 연제구 월드컵대로111번길 6-16,연제구,35.1845427,129.08180529999998,OPERATIONAL,"seafood_restaurant,restaurant,food,point_of_interest,establishment",부산진구 음식점,2026-03-16
ChIJo-X1A2fraDUR-agDu9ut5zY,버드나무식당,음식점,음식점,4.6,17,,,대한민국 부산광역시 부산진구 전포동 631-6,부산진구,35.1605963,129.0636348,OPERATIONAL,"restaurant,food,point_of_interest,establishment",부산진구 음식점,2026-03-16
ChIJYVunTGfraDURuIdonkfJccU,가야포차선지국밥 전포점,한식당,음식점,4.3,514,1,PRICE_LEVEL_INEXPENSIVE,대한민국 부산광역시 부산진구 전포대로 274 1 층,부산진구,35.1609449,129.0658087,OPERATIONAL,"korean_restaurant,restaurant,food,point_of_interest,establishment",부산진구 음식점,2026-03-16
ChIJ377JCgCTaDURdsjABhfdLgM,민정한우국밥,한식당,음식점,4.4,48,1,PRICE_LEVEL_INEXPENSIVE,대한민국 부산광역시 연제구 연산동 1242-21,연제구,35.185800799999996,129.0803231,OPERATIONAL,"korean_restaurant,restaurant,food,point_of_interest,establishment",부산진구 음식점,2026-03-16
ChIJDy8yDF2TaDURHJcrM0eCup4,맥도날드 부산교대DT점,패스트푸드점,음식점,4,688,2,PRICE_LEVEL_MODERATE,대한민국 부산광역시 연제구 중앙대로 1179,연제구,35.1926089,129.0795408,OPERATIONAL,"fast_food_restaurant,restaurant,food,point_of_interest,establishment",부산진구 음식점,2026-03-16
ChIJdUIpvMHraDURXca5NU4KD-g,澎湃海鮮鍋,한식당,음식점,4.7,143,,,대한민국 부산광역시 부산진구 백양관문로77번길 ６,부산진구,35.1656202,129.0281542,OPERATIONAL,"korean_restaurant,restaurant,food,point_of_interest,establishment",부산진구 음식점,2026-03-16
ChIJhZEBi2DraDURODg4ClCyyt0,청와정,한식당,음식점,4,402,2,PRICE_LEVEL_MODERATE,대한민국 부산광역시 부산진구 동평로44번길 55,부산진구,35.1642479,129.03605349999998,OPERATIONAL,"korean_restaurant,restaurant,food,point_of_interest,establishment",부산진구 음식점,2026-03-16
ChIJMaCSFBvraDUR84VTQbOa9A0,교촌치킨 당감점,음식점,음식점,3.6,8,2,PRICE_LEVEL_MODERATE,대한민국 부산광역시 부산진구 당감제4동 358-3,부산진구,35.1650062,129.0361408,OPERATIONAL,"restaurant,food,point_of_interest,establishment",부산진구 음식점,2026-03-16
ChIJteyJlUDraDURExPCBVn53F8,교통부돼지국밥,한식당,음식점,4.3,433,2,PRICE_LEVEL_MODERATE,대한민국 부산광역시 부산진구 연지로 12-1,부산진구,35.1708333,129.0513889,OPERATIONAL,"korean_restaurant,restaurant,food,point_of_interest,establishment",부산진구 음식점,2026-03-16
ChIJdQGx_zbraDURIzG5clNSWMk,교촌치킨 초읍대공원점,닭요리전문점,음식점,3.9,35,2,PRICE_LEVEL_MODERATE,대한민국 부산광역시 부산진구 새싹로 274-1,부산진구,35.180580899999995,129.0474855,OPERATIONAL,"chicken_restaurant,restaurant,food,point_of_interest,establishment",부산진구 음식점,2026-03-16
ChIJa5pv2hvraDUR2v3ADKzeqsI,시민냉면밀면,한식당,음식점,4,490,2,PRICE_LEVEL_MODERATE,대한민국 부산광역시 부산진구 당감로64번길 16,부산진구,35.1676755,129.03963099999999,OPERATIONAL,"noodle_shop,korean_restaurant,restaurant,food,point_of_interest,establishment",부산진구 음식점,2026-03-16
ChIJEz8bezbraDUR9gPFhUe0h_s,맥도날드 초읍DT점,햄버거 전문점,음식점,4,771,2,PRICE_LEVEL_MODERATE,대한민국 부산광역시 부산진구 성지로 152,부산진구,35.1820908,129.0480548,OPERATIONAL,"hamburger_restaurant,american_restaurant,restaurant,food,point_of_interest,establishment",부산진구 음식점,2026-03-16
ChIJ-bNDAhvraDURLA68upK8sRY,암소가,한식 고기구이 레스토랑,음식점,4.2,191,2,PRICE_LEVEL_MODERATE,대한민국 부산광역시 부산진구 동평로 44,부산진구,35.1646647,129.0345308,OPERATIONAL,"korean_barbecue_restaurant,korean_restaurant,restaurant,food,point_of_interest,establishment",부산진구 음식점,2026-03-16
ChIJZ59OMhjraDURqlcjs3w9u5E,이탈리아피자,음식점,음식점,4.3,84,2,PRICE_LEVEL_MODERATE,대한민국 부산광역시 부산진구 백양순환로 110 금부빌딩 1층,부산진구,35.1699117,129.03900439999998,OPERATIONAL,"restaurant,food,point_of_interest,establishment",부산진구 음식점,2026-03-16
ChIJt2vwazbraDURyh2eysdq_YA,초읍 원가네,닭요리전문점,음식점,4.2,40,,,대한민국 부산광역시 부산진구 새싹로 287-1,부산진구,35.1817934,129.04685220000002,OPERATIONAL,"chicken_restaurant,restaurant,food,point_of_interest,establishment",부산진구 음식점,2026-03-16
ChIJxzChA0braDURZKEjpQM6biw,화남정돼지국밥,한식당,음식점,4.5,434,2,PRICE_LEVEL_MODERATE,대한민국 부산광역시 부산진구 성지로 50,부산진구,35.175092299999996,129.0549713,OPERATIONAL,"korean_restaurant,restaurant,food,point_of_interest,establishment",부산진구 음식점,2026-03-16
ChIJCYRGLoXraDURvnjUtJ0ldWg,진수밥상,한식당,음식점,4.3,191,2,PRICE_LEVEL_MODERATE,대한민국 부산광역시 부산진구 백양관문로 111,부산진구,35.168340199999996,129.0269817,OPERATIONAL,"korean_restaurant,restaurant,food,point_of_interest,establishment",부산진구 음식점,2026-03-16
ChIJddzDJ9_raDURYrF6Nk52Ens,가디나 GARDENA,이탈리아 음식점,음식점,4.6,86,,,대한민국 부산광역시 부산진구 당감로 37-12 가디나 GARDENA,부산진구,35.165108,129.0388181,OPERATIONAL,"italian_restaurant,restaurant,food,point_of_interest,establishment",부산진구 음식점,2026-03-16
ChIJtzU2E1jraDURCs4xo1DJCno,동춘이 만두（ドンチュニ・マンドゥ）,음식점,음식점,4.4,69,1,PRICE_LEVEL_INEXPENSIVE,대한민국 부산광역시 부산진구 당감로25번길 11,부산진구,35.1640517,129.0389609,OPERATIONAL,"restaurant,food,point_of_interest,establishment",부산진구 음식점,2026-03-16
ChIJJfBibDvraDURQ88V7HMDwAo,산마루,중국 음식점,음식점,4.6,27,,,대한민국 부산광역시 부산진구 월드컵대로449번길 49,부산진구,35.181302099999996,129.05122649999998,OPERATIONAL,"chinese_restaurant,restaurant,food,point_of_interest,establishment",부산진구 음식점,2026-03-16
ChIJnSC2_hrraDURg98CARbB5eI,단골손님,음식점,음식점,,0,,,대한민국 부산광역시 당감동 391-1번지 1층 부산진구 부산광역시 KR,진구,35.1654072,129.0375062,OPERATIONAL,"restaurant,food,point_of_interest,establishment",부산진구 음식점,2026-03-16
ChIJOU0j6JvraDUR0qAF6HwcRVU,60년전통 할매국밥,한식당,음식점,4.2,2503,1,PRICE_LEVEL_INEXPENSIVE,대한민국 부산광역시 동구 중앙대로533번길 4,동구,35.1410105,129.0561679,OPERATIONAL,"korean_restaurant,restaurant,food,point_of_interest,establishment",부산진구 음식점,2026-03-16
ChIJhZMW0nDraDURZm2_dxvTWN0,와일드캣 브루잉,술집,음식점,4.8,450,,,대한민국 부산광역시 부산진구 신천대로62번길 2,부산진구,35.1508218,129.05861819999998,OPERATIONAL,"bar,brewpub,brewery,pub,liquor_store,service,restaurant,food,point_of_interest,manufacturer,store,establishment",부산진구 음식점,2026-03-16
ChIJw-5UsHHraDUR8UQ23U2suzk,김형제고기의철학 부산서면점,한식 고기구이 레스토랑,음식점,4.6,60,,,대한민국 부산광역시 부산진구 서면로 37 진흥빌딩 1층,부산진구,35.1540047,129.0575347,OPERATIONAL,"korean_barbecue_restaurant,korean_restaurant,restaurant,food,point_of_interest,establishment",부산진구 음식점,2026-03-16
ChIJ28_8ldjraDURY-gwoJlnGOQ,西面辣炒年糕一條街,음식점,음식점,4.3,23,,,대한민국 부산광역시 부산진구 부전제2동 242-7,부산진구,35.154986699999995,129.0584023,OPERATIONAL,"restaurant,food,point_of_interest,establishment",부산진구 음식점,2026-03-16
ChIJaWeZlXHraDUR9jy_T7c5rAw,홍소족발 서면,한식당,음식점,4,558,2,PRICE_LEVEL_MODERATE,대한민국 부산광역시 부산진구 중앙대로691번길 44 1층,부산진구,35.154543499999996,129.0566859,OPERATIONAL,"korean_restaurant,restaurant,food,point_of_interest,establishment",부산진구 음식점,2026-03-16
ChIJi9MO6nHraDURnByoT9_Aup0,문화양곱창,한식당,음식점,4,593,,,대한민국 부산광역시 부산진구 가야대로784번길 56-8,부산진구,35.155077899999995,129.0567312,OPERATIONAL,"korean_restaurant,restaurant,food,point_of_interest,establishment",부산진구 음식점,2026-03-16
ChIJX73ryZ_raDURUjsO3Wo5ya0,스트럿커피,커피숍/커피 전문점,카페,4.7,227,,,대한민국 부산광역시 부산진구 동성로39번길 28,부산진구,35.1541096,129.0668198,OPERATIONAL,"coffee_shop,cafe,food_store,store,food,point_of_interest,establishment",부산진구 카페,2026-03-16
ChIJPbYtIGXraDURr5i1-tLQYDk,빈티지38 전포본점,카페,카페,4.2,952,2,PRICE_LEVEL_MODERATE,대한민국 부산광역시 부산진구 전포대로199번길 38,부산진구,35.1546538,129.06310969999998,OPERATIONAL,"cafe,food,point_of_interest,establishment",부산진구 카페,2026-03-16
ChIJ2-FqxArpaDURHWPtUET-O0c,블랙업커피 서면본점,카페,카페,4.5,852,2,PRICE_LEVEL_MODERATE,대한민국 부산광역시 부산진구 서전로10번길 41,부산진구,35.156058,129.0600014,OPERATIONAL,"cafe,food,point_of_interest,establishment",부산진구 카페,2026-03-16
ChIJ9fPO37_raDUR2Mp5P4WPWaI,오얼왓에버,카페,카페,4.8,146,,,"jeonpodaero, 186 33 / 1 beon-gil, 부산진구 부산광역시 대한민국",진구,35.153139700000004,129.06742480000003,OPERATIONAL,"cafe,breakfast_restaurant,brunch_restaurant,vegan_restaurant,vegetarian_restaurant,restaurant,food,point_of_interest,establishment",부산진구 카페,2026-03-16
ChIJgUvQYybraDURgino6JeL6TE,녹아들다 녹카페,카페,카페,3.9,77,,,대한민국 부산광역시 부산진구 서전로37번길 18,부산진구,35.1585585,129.06421459999999,OPERATIONAL,"cafe,food,point_of_interest,establishment",부산진구 카페,2026-03-16
ChIJb890rgbraDURz4cuFdU_cac,Coffee Nine,커피숍/커피 전문점,카페,4.9,66,,,대한민국 부산광역시 부산진구 서면로 64 1층,부산진구,35.1564602,129.0580757,OPERATIONAL,"coffee_shop,cafe,food_store,store,food,point_of_interest,establishment",부산진구 카페,2026-03-16
ChIJ-89b5mTraDURFoadptjw-MQ,에프엠 커피,커피숍/커피 전문점,카페,4.4,562,2,PRICE_LEVEL_MODERATE,대한민국 부산광역시 부산진구 전포대로199번길 26,부산진구,35.1546455,129.0637738,OPERATIONAL,"coffee_shop,cafe,food_store,store,food,point_of_interest,establishment",부산진구 카페,2026-03-16
ChIJi2EWJ57raDURQQiQEof9HEE,오프 커스 베이커리 카페,카페,카페,4.4,189,,,대한민국 부산광역시 부산진구 전포대로199번길 30,부산진구,35.1546154,129.0635475,OPERATIONAL,"cafe,food,point_of_interest,establishment",부산진구 카페,2026-03-16
ChIJy13VECTraDURrPaE1Q8LCdg,스테이트,카페,카페,4.3,80,,,대한민국 부산광역시 부산진구 동성로71번길 28,부산진구,35.156973,129.06675210000003,OPERATIONAL,"cafe,food,point_of_interest,establishment",부산진구 카페,2026-03-16
ChIJueKaZ8rraDURe6Z1_pvL9SA,스타벅스 서면로R점,커피숍/커피 전문점,카페,4.3,682,2,PRICE_LEVEL_MODERATE,대한민국 부산광역시 부산진구 서면로 49-1,부산진구,35.1551314,129.05761049999998,OPERATIONAL,"coffee_shop,cafe,food_store,store,food,point_of_interest,establishment",부산진구 카페,2026-03-16
ChIJB_YSeMzraDUR0XnotrHpOI4,히떼로스터리,커피숍/커피 전문점,카페,4.7,90,,,대한민국 부산광역시 부산진구 동성로 59 2층,부산진구,35.155767,129.0682232,OPERATIONAL,"coffee_shop,cafe,food_store,store,food,point_of_interest,establishment",부산진구 카페,2026-03-16
ChIJ90_nSWXraDURHsb_q7xIOeg,투썸플레이스 서면중앙점,카페,카페,4,428,2,PRICE_LEVEL_MODERATE,대한민국 부산광역시 부산진구 중앙대로692번길 50,부산진구,35.1543239,129.0619358,OPERATIONAL,"cafe,food,point_of_interest,establishment",부산진구 카페,2026-03-16
ChIJOw8sNGXraDURDxyWlxb2xpM,다이아에그,오락실,카페,4.9,423,,,대한민국 부산광역시 부산진구 동천로 61 3 층,부산진구,35.1541563,129.0621389,OPERATIONAL,"cafe,amusement_center,food,point_of_interest,establishment",부산진구 카페,2026-03-16
ChIJf3LiKgDraDURF-My608DGd0,피클스(Pickles),음식점,카페,5,580,,,대한민국 부산광역시 부산진구 서전로46번길 62-14 1층,부산진구,35.15508570000001,129.064142,OPERATIONAL,"restaurant,brunch_restaurant,coffee_shop,pizza_restaurant,pub,cafe,bar,american_restaurant,italian_restaurant,food_store,store,food,point_of_interest,establishment",부산진구 카페,2026-03-16
ChIJGfd3tHrraDUR_SHIQJK-IW0,모던테이블,카페,카페,4.5,276,,,대한민국 부산광역시 부산진구 중앙대로680번길 45-9,부산진구,35.153893,129.0616361,OPERATIONAL,"cafe,food,point_of_interest,establishment",부산진구 카페,2026-03-16
ChIJAdNB1NnraDURFPjwuxJKsvM,도시농가코페 도코,카페,카페,4.4,414,2,PRICE_LEVEL_MODERATE,대한민국 부산광역시 부산진구 중앙대로666번길 17,부산진구,35.1523308,129.060316,OPERATIONAL,"cafe,food,point_of_interest,establishment",부산진구 카페,2026-03-16
ChIJEc5mm2_raDUR0G5IyNuafu4,브룩스 [BROOKS Bakery & Coffee],카페,카페,4.5,220,,,대한민국 부산광역시 부산진구 서전로10번길 28 오기빌딩 1F,부산진구,35.1567207,129.05995249999998,OPERATIONAL,"cafe,coffee_shop,food_store,store,food,point_of_interest,establishment",부산진구 카페,2026-03-16
ChIJeYyUzCiTaDUR68raAfLyB34,Fruto Fruta,디저트 전문점,카페,4.5,167,,,대한민국 부산광역시 부산진구 전포대로224번길 28,부산진구,35.1564243,129.06701619999998,OPERATIONAL,"dessert_shop,confectionery,cafe,vegetarian_restaurant,wholesaler,food_store,store,restaurant,food,point_of_interest,establishment",부산진구 카페,2026-03-16
ChIJfYrOpCfraDURh86nvv0HnL8,스타벅스 서면중앙대로R점,커피숍/커피 전문점,카페,4.4,673,2,PRICE_LEVEL_MODERATE,"대한민국 부산광역시 부산진구 중앙대로 672 삼정타워 1F,2F",부산진구,35.152789,129.05951550000003,OPERATIONAL,"coffee_shop,cafe,food_store,store,food,point_of_interest,establishment",부산진구 카페,2026-03-16
ChIJf3NJYmDraDUR-mFanoikMSU,커피빈 부산서면점,카페,카페,4.4,71,2,PRICE_LEVEL_MODERATE,대한민국 부산광역시 부산진구 서면로 62-1,부산진구,35.156318399999996,129.0580556,OPERATIONAL,"cafe,food,point_of_interest,establishment",부산진구 카페,2026-03-16
ChIJ8xhmq0XraDURYUn5flVLnWs,콘피오(Confio),카페,카페,4.8,80,2,PRICE_LEVEL_MODERATE,대한민국 부산광역시 부산진구 성지로8번길 33,부산진구,35.1719807,129.0577644,OPERATIONAL,"cafe,supplier,food,point_of_interest,establishment",부산진구 카페,2026-03-16
ChIJW6k4x2fraDUR17yTi94nmFw,스타벅스 부전역점,커피숍/커피 전문점,카페,4.2,349,2,PRICE_LEVEL_MODERATE,대한민국 부산광역시 부산진구 중앙대로 777,부산진구,35.1618087,129.0618762,OPERATIONAL,"coffee_shop,cafe,food_store,food,point_of_interest,store,establishment",부산진구 카페,2026-03-16
ChIJ8yraiFfraDURmug533D-rrY,스타벅스 양정역점,커피숍/커피 전문점,카페,3.9,325,2,PRICE_LEVEL_MODERATE,대한민국 부산광역시 부산진구 중앙대로 894,부산진구,35.1700728,129.06924709999998,OPERATIONAL,"coffee_shop,cafe,food_store,food,point_of_interest,store,establishment",부산진구 카페,2026-03-16
ChIJKQP9v-iTaDURCEzgC5ZzlAo,커비 커피,커피숍/커피 전문점,카페,4.8,20,,,대한민국 부산광역시 부산진구 부전로 165 1층,부산진구,35.162884,129.05900259999999,OPERATIONAL,"coffee_shop,cafe,food_store,food,point_of_interest,store,establishment",부산진구 카페,2026-03-16
ChIJ9xQrYRvraDURKdjvkGC_3vs,북카페 숲,카페,카페,4.5,87,,,대한민국 부산광역시 부산진구 시민공원로 73,부산진구,35.172039,129.06083759999999,OPERATIONAL,"cafe,food,point_of_interest,establishment",부산진구 카페,2026-03-16
ChIJ60qOko7raDURnOHwMZNuMhY,스타벅스 초읍대공원점,커피숍/커피 전문점,카페,4.4,73,2,PRICE_LEVEL_MODERATE,대한민국 부산광역시 부산진구 성지곡로 6,부산진구,35.182784,129.0474449,OPERATIONAL,"coffee_shop,cafe,food_store,food,point_of_interest,store,establishment",부산진구 카페,2026-03-16
ChIJYSJpB3jraDURp4kS70zUyoM,할리스 부산시민공원점,커피숍/커피 전문점,카페,3.5,2,2,PRICE_LEVEL_MODERATE,대한민국 부산광역시 부산진구 연지동 106,부산진구,35.1690713,129.0578425,OPERATIONAL,"coffee_shop,cafe,food_store,food,point_of_interest,store,establishment",부산진구 카페,2026-03-16
ChIJcZjheD_raDUR7Y7Y9BRjt2c,모네의정원,카페,카페,4.5,99,2,PRICE_LEVEL_MODERATE,대한민국 부산광역시 부산진구 새싹로 161-5,부산진구,35.1703894,129.0498153,OPERATIONAL,"cafe,food,point_of_interest,establishment",부산진구 카페,2026-03-16
ChIJ4ePQJACTaDURvQkOnPInDpM,스타벅스 부산거제DT점,커피숍/커피 전문점,카페,4.6,14,2,PRICE_LEVEL_MODERATE,대한민국 부산광역시 연제구 거제대로 203,연제구,35.1864996,129.0715749,OPERATIONAL,"coffee_shop,cafe,food_store,food,point_of_interest,store,establishment",부산진구 카페,2026-03-16
ChIJATKx-i3raDURL7NAi9rgf_I,리프패럿 시민공원점,카페,카페,4.4,31,,,대한민국 부산광역시 부산진구 새싹로 87 리프패럿 2층,부산진구,35.164625799999996,129.0531644,OPERATIONAL,"cafe,food,point_of_interest,establishment",부산진구 카페,2026-03-16
ChIJUflSsl7raDUROGazUGBet_s,CAFE DENNIS,카페,카페,4.4,79,2,PRICE_LEVEL_MODERATE,대한민국 부산광역시 부산진구 전포대로306번길 36,부산진구,35.165971299999995,129.06666719999998,OPERATIONAL,"cafe,food,point_of_interest,establishment",부산진구 카페,2026-03-16
ChIJbalckF3raDURxo7x0RX_cfI,코노코노동전노래방,카페,카페,4,47,,,대한민국 부산광역시 부산진구 전포대로275번길 65,부산진구,35.162960399999996,129.06395469999998,OPERATIONAL,"cafe,food,point_of_interest,establishment",부산진구 카페,2026-03-16
ChIJhY7D4zXraDURdImJjsrfPeg,아시오 (accio),카페,카페,4.1,573,2,PRICE_LEVEL_MODERATE,대한민국 부산광역시 부산진구 초읍동 165-9,부산진구,35.1822497,129.04937830000003,OPERATIONAL,"cafe,food,point_of_interest,establishment",부산진구 카페,2026-03-16
ChIJJzvJrGvraDURBnBS6LLdk1g,디저트39 부산시민공원점,카페,카페,4.5,24,2,PRICE_LEVEL_MODERATE,대한민국 부산광역시 부산진구 새싹로 83-2,부산진구,35.164251799999995,129.0532649,OPERATIONAL,"cafe,food,point_of_interest,establishment",부산진구 카페,2026-03-16
ChIJDUwUN6vsaDUR0nfugEENoB4,리짙커피로스터스,카페,카페,4.5,78,1,PRICE_LEVEL_INEXPENSIVE,대한민국 부산광역시 부산진구 양정동 147-7,부산진구,35.1765721,129.07474919999999,OPERATIONAL,"cafe,food,point_of_interest,establishment",부산진구 카페,2026-03-16
ChIJ-3h2uODraDURp2G9lL3c7eg,컴포즈커피 부전역점,카페,카페,4.4,30,1,PRICE_LEVEL_INEXPENSIVE,대한민국 부산광역시 부산진구 중앙대로 788,부산진구,35.1621344,129.062966,OPERATIONAL,"cafe,food,point_of_interest,establishment",부산진구 카페,2026-03-16
ChIJjcP1UmrraDURLLD2UH34zIw,텐퍼센트커피 부산시민공원점,커피숍/커피 전문점,카페,4.3,21,,,대한민국 부산광역시 부산진구 새싹로 85-5,부산진구,35.1643678,129.0533937,OPERATIONAL,"coffee_shop,cafe,food_store,food,point_of_interest,store,establishment",부산진구 카페,2026-03-16
ChIJ30HyEjfraDURBby2g9_ffBM,연화제과,카페,카페,4.3,42,,,대한민국 부산광역시 부산진구 초읍동 281-17,부산진구,35.179665799999995,129.0468826,OPERATIONAL,"cafe,food,point_of_interest,establishment",부산진구 카페,2026-03-16
ChIJzyAQDAXraDURt0JJ8u8c18Y,투썸플레이스 부산초읍대공원점,카페,카페,4.4,44,2,PRICE_LEVEL_MODERATE,대한민국 부산광역시 부산진구 새싹로 285-1 1층,부산진구,35.1815517,129.0468601,OPERATIONAL,"cafe,food,point_of_interest,establishment",부산진구 카페,2026-03-16
ChIJl4NPyt_raDURtX54sxOHVuM,투썸플레이스 부산양정국제식품점,커피숍/커피 전문점,카페,4.5,6,2,PRICE_LEVEL_MODERATE,대한민국 부산광역시 부산진구 거제대로72번길 2,부산진구,35.1749004,129.0681687,OPERATIONAL,"coffee_shop,cafe,food_store,food,point_of_interest,store,establishment",부산진구 카페,2026-03-16
ChIJe5H46rzsaDURmtHm-o5lebY,블루뱅 황령산점,카페,카페,4.5,115,1,PRICE_LEVEL_INEXPENSIVE,대한민국 부산광역시 39 지하 1층 KR 부산광역시 남구 황령산로391,남구,35.157986799999996,129.0826616,OPERATIONAL,"cafe,food,point_of_interest,establishment",부산진구 카페,2026-03-16
ChIJj859uHHraDURyOosXSXDtJU,투썸플레이스 서면일번가점,커피숍/커피 전문점,카페,4.1,431,2,PRICE_LEVEL_MODERATE,대한민국 부산광역시 부산진구 중앙대로691번길 32,부산진구,35.1545741,129.05724100000003,OPERATIONAL,"coffee_shop,cafe,food_store,store,food,point_of_interest,establishment",부산진구 카페,2026-03-16
ChIJl3iotG_raDURmkYnaM8g-sE,스타벅스 서면중앙점,커피숍/커피 전문점,카페,4,717,2,PRICE_LEVEL_MODERATE,대한민국 부산광역시 부산진구 서면로68번길 1 노블레스타워빌딩 1-2F,부산진구,35.156874099999996,129.05810119999998,OPERATIONAL,"coffee_shop,cafe,food_store,store,food,point_of_interest,establishment",부산진구 카페,2026-03-16
ChIJZZ1Wym_raDURfV587az6Vwg,이디야 부산서면1번가점,커피숍/커피 전문점,카페,3.9,109,2,PRICE_LEVEL_MODERATE,대한민국 부산광역시 부산진구 서면로68번길 14,부산진구,35.156417499999996,129.0582643,OPERATIONAL,"coffee_shop,cafe,food_store,store,food,point_of_interest,establishment",부산진구 카페,2026-03-16
ChIJz9rE7ELraDUREIO8bBT1WSo,메가MGC커피 서면롯데점,카페,카페,4.5,6,1,PRICE_LEVEL_INEXPENSIVE,대한민국 부산광역시 부산진구 가야대로784번길 11,부산진구,35.156908300000005,129.057361,OPERATIONAL,"cafe,food,point_of_interest,establishment",부산진구 카페,2026-03-16
ChIJZwD1V27raDUR8AgaOcx8TJ0,스타벅스 서면메디컬거리점,커피숍/커피 전문점,카페,4.1,511,2,PRICE_LEVEL_MODERATE,대한민국 부산광역시 부산진구 가야대로 783-1 1층,부산진구,35.157968800000006,129.0573875,OPERATIONAL,"coffee_shop,cafe,food_store,store,food,point_of_interest,establishment",부산진구 카페,2026-03-16
ChIJdTf3fYfraDURO8ytvW1HFKM,노티드 부산 롯데백화점,카페,카페,4.6,25,,,대한민국 부산광역시 부산진구 롯데백화점 지하 2층,부산진구,35.1570275,129.05627429999998,OPERATIONAL,"cafe,coffee_shop,donut_shop,bakery,food_store,store,food,point_of_interest,establishment",부산진구 카페,2026-03-16
ChIJteEBCADraDURp3eu4o-pr08,PAIK'S COFFEE (釜山西面樂天後門市),커피숍/커피 전문점,카페,3.8,4,,,대한민국 부산광역시 부산진구 부전로66번길,부산진구,35.1562088,129.0563846,OPERATIONAL,"coffee_shop,cafe,food_store,store,food,point_of_interest,establishment",부산진구 카페,2026-03-16
ChIJ6xwXJgDraDURhmfvPAbPFRI,브런치카페 라함 (Brunch Caffe LAHAM),카페,카페,4.4,15,,,대한민국 부산광역시 부산진구 부전로 71 1f,부산진구,35.156441699999995,129.0545239,OPERATIONAL,"cafe,wine_bar,brunch_restaurant,coffee_shop,bar,food_store,store,restaurant,food,point_of_interest,establishment",부산진구 카페,2026-03-16
ChIJXZuS02HraDURrtRNJrBVl5U,Conut Coffee,커피숍/커피 전문점,카페,5,6,,,대한민국 부산광역시 부산진구 부전동 516-7,부산진구,35.1558515,129.0560203,OPERATIONAL,"coffee_shop,cafe,food_store,store,food,point_of_interest,establishment",부산진구 카페,2026-03-16
ChIJnVnJIUfraDURK9N3_H5fz_Q,커피스가모 인 서면,카페,카페,4.4,206,,,대한민국 부산광역시 부산진구 가야대로755번길 23,부산진구,35.1588412,129.05403809999999,OPERATIONAL,"cafe,food,point_of_interest,establishment",부산진구 카페,2026-03-16
ChIJs4SG-nHraDURVV0zJQSgW3k,이디야커피 부산서면롯데후문점,카페,카페,3.4,96,2,PRICE_LEVEL_MODERATE,대한민국 부산광역시 부산진구 부전로66번길 22,부산진구,35.1557829,129.055893,OPERATIONAL,"cafe,food,point_of_interest,establishment",부산진구 카페,2026-03-16
ChIJw4I418nraDURN2Jf1QES3GE,텐퍼센트커피 서면롯데점,커피숍/커피 전문점,카페,4.9,16,,,대한민국 부산광역시 부산진구 부전로66번길 28,부산진구,35.1557842,129.0562332,OPERATIONAL,"coffee_shop,cafe,food_store,store,food,point_of_interest,establishment",부산진구 카페,2026-03-16
ChIJYb_46m7raDUR8Qpzib2IxCQ,차마당,카페,카페,4.3,74,,,대한민국 부산광역시 부산진구 서면문화로 20 2층,부산진구,35.159258799999996,129.056891,OPERATIONAL,"cafe,food,point_of_interest,establishment",부산진구 카페,2026-03-16
ChIJ4Sd5u23raDURj5ttrewxki4,어블림,카페,카페,4.6,39,,,대한민국 부산광역시 부산진구 부전로95번길 19,부산진구,35.158639199999996,129.0536444,OPERATIONAL,"cafe,food,point_of_interest,establishment",부산진구 카페,2026-03-16
ChIJ4zo6_RzraDURpYZHVnro8X8,파스쿠찌 부산비즈니스호텔점,카페,카페,4.4,25,2,PRICE_LEVEL_MODERATE,대한민국 부산광역시 부산진구 부전로 67,부산진구,35.1560044,129.0546388,OPERATIONAL,"cafe,food,point_of_interest,establishment",부산진구 카페,2026-03-16
ChIJ7bxHyHHraDURkFRdFjZIaZw,모찌의하루 서면본점,카페,카페,4.6,10,,,대한민국 부산광역시 부산진구 중앙대로691번길 28,부산진구,35.154561799999996,129.0575148,OPERATIONAL,"cafe,food,point_of_interest,establishment",부산진구 카페,2026-03-16
ChIJ6V-9jTHraDURDpH1v7mW-Qs,메가커피 서면호텔점,카페,카페,4,19,1,PRICE_LEVEL_INEXPENSIVE,대한민국 부산광역시 부산진구 부전로66번길 4,부산진구,35.1557976,129.054934,OPERATIONAL,"cafe,food,point_of_interest,establishment",부산진구 카페,2026-03-16
ChIJddWPkUSTaDURXNKsMAPwQKs,스타벅스 부산연산역점,커피숍/커피 전문점,카페,3.9,393,2,PRICE_LEVEL_MODERATE,대한민국 부산광역시 연제구 반송로 20,연제구,35.186947499999995,129.08333349999998,OPERATIONAL,"coffee_shop,cafe,food_store,food,point_of_interest,store,establishment",부산진구 카페,2026-03-16
ChIJyVCHx6STaDUR1BnM7N2l1P8,스타벅스 부산시청점,커피숍/커피 전문점,카페,4.3,131,2,PRICE_LEVEL_MODERATE,대한민국 부산광역시 연제구 중앙천로 93,연제구,35.1816385,129.0784313,OPERATIONAL,"coffee_shop,cafe,food_store,food,point_of_interest,store,establishment",부산진구 카페,2026-03-16
ChIJ6f5l50qTaDURLWyfztKJdlg,라운지 / Lounge 브런치 카페(연산동&부산시청),커피숍/커피 전문점,카페,4.2,57,,,대한민국 부산광역시 연제구 중앙대로1056번길 13 1층~5층,연제구,35.1824583,129.0796498,OPERATIONAL,"coffee_shop,brunch_restaurant,cafe,food_store,restaurant,food,point_of_interest,store,establishment",부산진구 카페,2026-03-16
ChIJqe4-q1GTaDURvUAtVuUFgIA,사이먼커피,카페,카페,4.5,137,2,PRICE_LEVEL_MODERATE,대한민국 부산광역시 연제구 중앙대로1056번길 2,연제구,35.1823583,129.0790882,OPERATIONAL,"cafe,food,point_of_interest,establishment",부산진구 카페,2026-03-16
ChIJUzwJRwCTaDURMnLLJfUETKY,스타벅스 연산교차로점,커피숍/커피 전문점,카페,4,2,2,PRICE_LEVEL_MODERATE,대한민국 부산광역시 연제구 중앙대로 1098,연제구,35.1853978,129.0816346,OPERATIONAL,"coffee_shop,cafe,food_store,food,point_of_interest,store,establishment",부산진구 카페,2026-03-16
ChIJUyhVd0qTaDURNoviEe_Ra0U,스타벅스 연산시티타워점,커피숍/커피 전문점,카페,4.1,231,2,PRICE_LEVEL_MODERATE,"대한민국 부산광역시 연제구 1124-3 C T 타워(A동 107,108,109",연제구,35.187964099999995,129.0808992,OPERATIONAL,"coffee_shop,cafe,food_store,food,point_of_interest,store,establishment",부산진구 카페,2026-03-16
ChIJc51RIVSTaDURV8XzMGZGlRo,후스,카페,카페,4.3,311,,,대한민국 부산광역시 연제구 시청로 24,연제구,35.181499099999996,129.07468,OPERATIONAL,"cafe,food,point_of_interest,establishment",부산진구 카페,2026-03-16
ChIJDX2UJ1eTaDUR0Ci0XFUnkh8,텐퍼센트커피 부산시청본점,커피숍/커피 전문점,카페,4.3,31,,,대한민국 부산광역시 연제구 시청로 20,연제구,35.181311,129.0751017,OPERATIONAL,"coffee_shop,cafe,food_store,food,point_of_interest,store,establishment",부산진구 카페,2026-03-16
ChIJJ_ZPF46TaDURU5uu1MCtz4g,투썸플레이스,커피숍/커피 전문점,카페,4.5,11,2,PRICE_LEVEL_MODERATE,대한민국 부산광역시 연제구 연산동 반송로 30 석산빌딩 투썸플레이스 건물 4층,연제구,35.1877388,129.0841329,OPERATIONAL,"coffee_shop,cafe,food_store,food,point_of_interest,store,establishment",부산진구 카페,2026-03-16
ChIJaV_vnl_raDUR_1d8L0fAMik,메르시마담,카페,카페,4.7,75,,,대한민국 부산광역시 부산진구 초읍동 초읍천로 103-1,부산진구,35.1816069,129.0458979,OPERATIONAL,"cafe,food,point_of_interest,establishment",부산진구 카페,2026-03-16
ChIJiToaEDXraDUR_nP2jBoqpko,카페 휘고,카페,카페,4.3,434,2,PRICE_LEVEL_MODERATE,대한민국 부산광역시 부산진구 성지곡로 36-1,부산진구,35.185552,129.0484185,OPERATIONAL,"cafe,food,point_of_interest,establishment",부산진구 카페,2026-03-16
ChIJ1bgR7nbraDURjmkVF3s8MFs,메가커피 부산당감점,카페,카페,4.3,16,1,PRICE_LEVEL_INEXPENSIVE,대한민국 부산광역시 부산진구 당감동 동평로 92,부산진구,35.1653405,129.0396096,OPERATIONAL,"cafe,food,point_of_interest,establishment",부산진구 카페,2026-03-16
ChIJzXbVCj_raDURfMzDtn4rVXE,Ront Cafe,카페,카페,4.8,5,,,대한민국 부산광역시,,35.170746099999995,129.0489236,OPERATIONAL,"cafe,food,point_of_interest,establishment",부산진구 카페,2026-03-16
ChIJ0RjXEhfraDURUv_L8QJVVhA,Aesop,카페,카페,4.3,35,,,대한민국 부산광역시 부산진구 당감로64번길 47,부산진구,35.1681825,129.0411116,OPERATIONAL,"cafe,food,point_of_interest,establishment",부산진구 카페,2026-03-16
ChIJ5TKV0UDraDURJ0yURGKYF0s,뉴스커피,커피숍/커피 전문점,카페,4.2,17,,,대한민국 부산광역시 부산진구 연지동 연지로 24,부산진구,35.1712761,129.0522524,OPERATIONAL,"coffee_shop,cafe,food_store,food,store,point_of_interest,establishment",부산진구 카페,2026-03-16
ChIJlWbGjanraDURn08rJV3c8Q8,누아(noix),카페,카페,5,5,,,대한민국 부산광역시 부산진구 연지동 동평로225번길 14,부산진구,35.1698458,129.05119009999999,OPERATIONAL,"cafe,food,point_of_interest,establishment",부산진구 카페,2026-03-16
ChIJrao9hhrraDURmSKPSV550wc,카페 티볼리 | CAFE TIVOLI,카페,카페,4.1,158,,,대한민국 부산광역시 부산진구 당감로 35-1,부산진구,35.164764999999996,129.03921219999998,OPERATIONAL,"cafe,food,point_of_interest,establishment",부산진구 카페,2026-03-16
ChIJWYB6l0jraDURXBb-2P-PFFY,잎테,카페,카페,5,3,,,대한민국 부산광역시 부산진구 초읍동 번지 1층 222-4,부산진구,35.1763046,129.0539495,OPERATIONAL,"cafe,food,point_of_interest,establishment",부산진구 카페,2026-03-16
ChIJb7tOuxXraDURcsHBdmjNuBE,메가커피 포레나점,커피숍/커피 전문점,카페,4.8,4,,,대한민국 부산광역시 부산진구 초읍동 54-1,부산진구,35.176000699999996,129.0468314,OPERATIONAL,"coffee_shop,cafe,food_store,food,store,point_of_interest,establishment",부산진구 카페,2026-03-16
ChIJv1uvrjrraDUReKRJQnKiRog,올선데이 부암직영점,카페,카페,4.5,4,,,대한민국 부산광역시 부산진구 당감로 102 1층,부산진구,35.1707041,129.0381564,OPERATIONAL,"cafe,food,point_of_interest,establishment",부산진구 카페,2026-03-16
ChIJp63BIxrraDURj6bzNy-HUtk,화이트펜슬스터디카페당감점,카페,카페,5,3,,,대한민국 부산광역시 부산진구 당감동 734-21번지 5층,부산진구,35.1673125,129.0382735,OPERATIONAL,"cafe,food,point_of_interest,establishment",부산진구 카페,2026-03-16
ChIJmeOZEQDraDURquTJalzuR1o,시나브로 워크룸 커피바,커피숍/커피 전문점,카페,4.3,3,,,대한민국 부산광역시 부산진구 연지동 189-6,부산진구,35.1715254,129.0517372,OPERATIONAL,"coffee_shop,cafe,food_store,food,store,point_of_interest,establishment",부산진구 카페,2026-03-16
ChIJkzOUWqXraDURylHFVibK0Y4,커피콜121,커피숍/커피 전문점,카페,4.6,37,,,대한민국 부산광역시 부산진구 백양관문로77번길 41 1층-2층,부산진구,35.1642025,129.0277192,OPERATIONAL,"coffee_shop,cafe,food_store,food,store,point_of_interest,establishment",부산진구 카페,2026-03-16
ChIJt33mq8LtaDURsED6ZHyV17o,지밀레니얼,카페,카페,4.7,2454,2,PRICE_LEVEL_MODERATE,대한민국 부산광역시 남구 진남로 135,남구,35.138874699999995,129.08017189999998,OPERATIONAL,"cafe,food,point_of_interest,establishment",부산진구 카페,2026-03-16
ChIJy6gkvl7raDURg3CTtYO5Imk,아브니르,카페,카페,4.3,83,2,PRICE_LEVEL_MODERATE,대한민국 부산광역시 동구 증산로 40,동구,35.1331451,129.048687,OPERATIONAL,"cafe,brunch_restaurant,coffee_shop,food_store,store,restaurant,food,point_of_interest,establishment",부산진구 카페,2026-03-16
ChIJa7KMXmHraDURF4t5Q24C_LE,컴포즈커피 서면1번가점,커피숍/커피 전문점,카페,4.4,10,1,PRICE_LEVEL_INEXPENSIVE,대한민국 부산광역시 부산진구 서면로68번길 50,부산진구,35.1547992,129.0583055,OPERATIONAL,"coffee_shop,cafe,food_store,store,food,point_of_interest,establishment",부산진구 카페,2026-03-16
ChIJF-D7MADraDURuewOFmC-kfM,Coffee roman,커피숍/커피 전문점,카페,4.6,9,,,대한민국 부산광역시,,35.155308999999995,129.0583394,OPERATIONAL,"coffee_shop,cafe,food_store,store,food,point_of_interest,establishment",부산진구 카페,2026-03-16
ChIJZ48XagDraDURMikG2HEiXLk,바닐라 808,카페,카페,,0,,,대한민국 부산광역시 부산진구 가야대로 450,부산진구,35.1525214,129.0209734,OPERATIONAL,"cafe,food,point_of_interest,establishment",부산진구 카페,2026-03-16
ChIJCTMeBW7raDURqBDu8-LHCYY,엔제리너스 롯데부산식당가점,커피숍/커피 전문점,카페,4.4,7,2,PRICE_LEVEL_MODERATE,대한민국 부산광역시 부산진구 가야대로 772 9층,부산진구,35.156641799999996,129.0560026,OPERATIONAL,"coffee_shop,cafe,food_store,store,food,point_of_interest,establishment",부산진구 카페,2026-03-16
ChIJz5anWcjraDUREwFbLIOJSbs,카페 벽돌 CAFE BYUKDOL,카페,카페,5,14,,,대한민국 부산광역시 부산진구 서면로 46 2층~5층,부산진구,35.1548179,129.0580411,OPERATIONAL,"cafe,food,point_of_interest,establishment",부산진구 카페,2026-03-16
ChIJC2YVVQDraDUREzEB1iMOzo4,명자네아구찜,해산물 요리 전문식당,음식점,4.9,447,,,대한민국 부산광역시 부산진구 부전로152번길 70 1층,부산진구,35.1592548,129.05862740000003,OPERATIONAL,"seafood_restaurant,restaurant,food,point_of_interest,establishment",부산 부산진구 맛집,2026-03-16
ChIJIRgYbwDraDURB1iSumcHTvs,융캉찌에 서면점,대만 레스토랑,음식점,4.9,687,,,대한민국 부산광역시 부산진구 서전로9번길 60,부산진구,35.160164099999996,129.0620329,OPERATIONAL,"taiwanese_restaurant,asian_restaurant,restaurant,food,point_of_interest,establishment",부산 부산진구 맛집,2026-03-16
ChIJZwLFHWzraDURT9hTXRboXtU,육가 서면본점,음식점,음식점,4.9,33,3,PRICE_LEVEL_EXPENSIVE,대한민국 부산광역시 부산진구 부전동 406-7,부산진구,35.1603112,129.05532,OPERATIONAL,"restaurant,korean_barbecue_restaurant,korean_restaurant,food,point_of_interest,establishment",부산 부산진구 맛집,2026-03-16
ChIJ4yO5EgDraDURnzhJtzgIRR4,쭈꾸미가 알고싶다 부산서면점,한식당,음식점,5,47,,,대한민국 부산광역시 부산진구 부전제1동 469-4 쭈꾸미가알고싶다 서면점 1층,부산진구,35.159051399999996,129.0550484,OPERATIONAL,"korean_restaurant,seafood_restaurant,western_restaurant,dessert_restaurant,chinese_restaurant,bar,japanese_restaurant,restaurant,food,point_of_interest,establishment",부산 부산진구 맛집,2026-03-16
ChIJm01uigrraDURfArHm3qjKUc,부산 서면 닭갈비 맛집 | 장인닭갈비 서면점 | Busan Seomyeon JangIn Dakgalbi Restaurants | 職人チキンリブ釜山西面店 | 釜山手工烤鸡排,닭요리전문점,음식점,4.9,295,,,대한민국 부산광역시 부산진구 부전동 중앙대로692번길 46 1층,부산진구,35.1543962,129.0621763,OPERATIONAL,"chicken_restaurant,restaurant,food,point_of_interest,establishment",부산 부산진구 맛집,2026-03-16
ChIJZ_SFJ2_raDURGcjs4m6d4yQ,도연정,음식점,음식점,4.4,181,1,PRICE_LEVEL_INEXPENSIVE,대한민국 부산광역시 부산진구 새싹로 16,부산진구,35.1594109,129.05807579999998,OPERATIONAL,"restaurant,food,point_of_interest,establishment",부산 부산진구 맛집,2026-03-16
ChIJBQllCwDraDURrU-M6YcHqDY,돼지나무사랑걸렸네 부산서면본점,한식 고기구이 레스토랑,음식점,5,681,,,대한민국 부산광역시 부산진구 중앙대로756번길 16,부산진구,35.1592846,129.0615195,OPERATIONAL,"korean_barbecue_restaurant,korean_restaurant,restaurant,food,point_of_interest,establishment",부산 부산진구 맛집,2026-03-16
ChIJH6iinHDraDURVU4o9PGXeEE,고하순,숯불구이/바베큐전문점,음식점,4.8,214,,,대한민국 부산광역시 부산진구 서전로 38 고기로하나되는순간 2층,부산진구,35.1575744,129.06398009999998,OPERATIONAL,"barbecue_restaurant,restaurant,food,point_of_interest,establishment",부산 부산진구 맛집,2026-03-16
ChIJK_tgjLDraDUR-wFvMQA1xrs,설야멱 부산서면 | Sulyamyeok Seomyeon | 雪夜覓,한식 고기구이 레스토랑,음식점,5,1668,,,대한민국 부산광역시 부산진구 서전로 25 1층,부산진구,35.157941,129.0626363,OPERATIONAL,"korean_barbecue_restaurant,korean_restaurant,restaurant,food,point_of_interest,establishment",부산 부산진구 맛집,2026-03-16
ChIJUSvVGEbraDURgsUsqqHRHPs,스구식탁 서면,일본 음식점,음식점,4.9,15,,,대한민국 부산광역시 부산진구 서전로 15 1층,부산진구,35.1579154,129.0614115,OPERATIONAL,"japanese_restaurant,restaurant,food,point_of_interest,establishment",부산 부산진구 맛집,2026-03-16
ChIJ_yGR2WzraDURYSOp37GUoIE,송정호 일식집,일본 음식점,음식점,4.5,83,,,대한민국 부산광역시 부산진구 서면문화로5번길 33,부산진구,35.1582312,129.0558003,OPERATIONAL,"japanese_restaurant,restaurant,food,point_of_interest,establishment",부산 부산진구 맛집,2026-03-16
ChIJjTd7YnPraDUR88bPz_7-mk4,반핀(半屏),대만 레스토랑,음식점,4.5,84,,,대한민국 부산광역시 부산진구 동천로108번길 9 1층,부산진구,35.158387,129.0627902,OPERATIONAL,"taiwanese_restaurant,restaurant,food,point_of_interest,establishment",부산 부산진구 맛집,2026-03-16
ChIJ2SjO9WXraDURU-hHEiFrmTs,맛있는하노이,베트남 음식점,음식점,4.7,98,,,대한민국 부산광역시 부산진구 부전동 142 11번지 1층,부산진구,35.1581549,129.0607904,OPERATIONAL,"vietnamese_restaurant,restaurant,food,point_of_interest,establishment",부산 부산진구 맛집,2026-03-16
ChIJZc0HfQDraDURpVGAokEsREQ,고생끝소금구이 서면직영점 Gosaengkkeut Sogeumgui : Korean BBQ restaurant,한식 고기구이 레스토랑,음식점,5,21,,,대한민국 부산광역시 부산진구 서면문화로 39,부산진구,35.1605755,129.0553993,OPERATIONAL,"korean_barbecue_restaurant,korean_restaurant,restaurant,food,point_of_interest,establishment",부산 부산진구 맛집,2026-03-16
ChIJwYjuMLzraDURlMJgJF-IY-Y,피켄드 pikend,카페,카페,4.8,45,,,대한민국 부산광역시 부산진구 전포대로 188,부산진구,35.1534069,129.0655558,OPERATIONAL,"cafe,food,point_of_interest,establishment",부산 부산진구 카페,2026-03-16
ChIJARV7jp_raDURIo9CtzLBKPg,어퍼이스트베이커리 (upperyeastbakery),카페,카페,5,483,,,대한민국 부산광역시 부산진구 서전로46번길 62-14 2층,부산진구,35.155039099999996,129.064153,OPERATIONAL,"cafe,food,point_of_interest,establishment",부산 부산진구 카페,2026-03-16
ChIJsaU04sXraDURLSm3d0afrWM,33게이트,카페,카페,4.6,54,,,대한민국 부산광역시 부산진구 서전로37번길 20,부산진구,35.1587495,129.064014,OPERATIONAL,"cafe,food,point_of_interest,establishment",부산 부산진구 카페,2026-03-16
ChIJSeOyvNzraDURpENv1PsJZPo,사랑방다실,커피숍/커피 전문점,카페,4.3,23,,,대한민국 부산광역시 부산진구 전포동 202-11 기원건물 3층,부산진구,35.1579468,129.06621959999998,OPERATIONAL,"coffee_shop,cafe,food_store,store,food,point_of_interest,establishment",부산 부산진구 카페,2026-03-16
ChIJCxhkTHWTaDURTQYCoIMyF1Q,페이버커피,커피숍/커피 전문점,카페,4.8,172,,,대한민국 부산광역시 부산진구 서전로68번길 52 페이버커피 2층,부산진구,35.155534599999996,129.067162,OPERATIONAL,"coffee_shop,cafe,food_store,store,food,point_of_interest,establishment",부산 부산진구 카페,2026-03-16
ChIJgc9zvWXraDURTfyETmcLRMw,Knockout,카페,카페,4.3,202,2,PRICE_LEVEL_MODERATE,대한민국 부산광역시 부산진구 동천로 91-4,부산진구,35.1569669,129.0620229,OPERATIONAL,"cafe,food,point_of_interest,establishment",부산 부산진구 카페,2026-03-16
ChIJ5YDEvlDraDUR4EAyOcpzsQk,먼스커피바,카페,카페,4.7,49,,,대한민국 부산광역시 부산진구 동성로87번길 5,부산진구,35.1581276,129.0679123,OPERATIONAL,"cafe,food,point_of_interest,establishment",부산 부산진구 카페,2026-03-16
ChIJ8ZJ1awDraDUREO_cnioO-4M,비콩피(BECONFI),카페,카페,4.6,19,,,대한민국 부산광역시 부산진구 전포대로 234 2 층,부산진구,35.1574503,129.0657771,OPERATIONAL,"cafe,food,point_of_interest,establishment",부산 부산진구 카페,2026-03-16
ChIJ1UsRWWTraDURQkDjWOiqesg,다운트,카페,카페,3.9,289,2,PRICE_LEVEL_MODERATE,대한민국 부산광역시 부산진구 서전로38번길 43-6,부산진구,35.1556522,129.064135,OPERATIONAL,"cafe,food,point_of_interest,establishment",부산 부산진구 카페,2026-03-16
ChIJa6darM6TaDURMzt4J0S6n3k,톤쇼우 부산대본점,돈까스 전문식당,음식점,4.4,425,,,대한민국 부산광역시 금정구 금강로 247-10,금정구,35.230438899999996,129.0842777,OPERATIONAL,"tonkatsu_restaurant,japanese_restaurant,restaurant,food,point_of_interest,establishment",금정구 음식점,2026-03-16
ChIJoY9LCWqRaDURXg2eC_olGnM,카파도키아,터키 음식점,음식점,4.1,293,,,대한민국 부산광역시 금정구 남산동 123-9,금정구,35.2600893,129.09222649999998,OPERATIONAL,"turkish_restaurant,restaurant,food,point_of_interest,establishment",금정구 음식점,2026-03-16
ChIJrZ5bgeuTaDURWeu2aEEVvSA,코하루,일본라면 전문식당,음식점,4.3,709,2,PRICE_LEVEL_MODERATE,대한민국 부산광역시 금정구 부산대학로38번길 16,금정구,35.231994,129.0874216,OPERATIONAL,"ramen_restaurant,japanese_restaurant,restaurant,food,point_of_interest,establishment",금정구 음식점,2026-03-16
ChIJPZnjqO2TaDURCoPJ7wHnZKw,애슐리 NC백화점 부산대점,뷔페 식당,음식점,3.6,1025,2,PRICE_LEVEL_MODERATE,대한민국 부산광역시 금정구 부산대학로63번길 2 NC백화점 6층,금정구,35.2322233,129.0836323,OPERATIONAL,"buffet_restaurant,restaurant,food,point_of_interest,establishment",금정구 음식점,2026-03-16
ChIJwRtYaOuTaDURSyOTKcnQ51o,맥도날드 부산대2호점,패스트푸드점,음식점,4,734,2,PRICE_LEVEL_MODERATE,대한민국 부산광역시 금정구 금정로60번길 24,금정구,35.2295151,129.08743289999998,OPERATIONAL,"fast_food_restaurant,restaurant,food,point_of_interest,establishment",금정구 음식점,2026-03-16
ChIJKbr6SwCTaDURQeuIMOy-ZJM,샤브20 부산금정점,일본 음식점,음식점,4.6,19,,,대한민국 부산광역시 금정구 중앙대로 1718,금정구,35.237634899999996,129.092787,OPERATIONAL,"japanese_restaurant,restaurant,food,point_of_interest,establishment",금정구 음식점,2026-03-16
ChIJgRf61-yTaDURDNHvvm7PV7g,쿠카이야 (空海家),일본 음식점,음식점,4.7,920,,,대한민국 부산광역시 금정구 부산대학로63번길 37,금정구,35.2300253,129.0841332,OPERATIONAL,"japanese_restaurant,restaurant,food,point_of_interest,establishment",금정구 음식점,2026-03-16
ChIJtQ6R_l-RaDURcvoOzDt_Tpg,배비장보쌈 구서본점 (Baebijang Bossam Guseo Main Branch),한식당,음식점,4,1400,2,PRICE_LEVEL_MODERATE,대한민국 부산광역시 금정구 금정로 239 배비장보쌈 구서본점,금정구,35.2451977,129.091462,OPERATIONAL,"korean_restaurant,family_restaurant,restaurant,food,point_of_interest,establishment",금정구 음식점,2026-03-16
ChIJvYM3imCRaDURuFLbx2UAtts,KFC 부산구서DT점,패스트푸드점,음식점,4.1,402,2,PRICE_LEVEL_MODERATE,대한민국 부산광역시 금정구 중앙대로 1824,금정구,35.2472218,129.0929137,OPERATIONAL,"fast_food_restaurant,restaurant,food,point_of_interest,establishment",금정구 음식점,2026-03-16
ChIJP4BrWfKTaDURSx9umal4GN8,두끼떡볶이 부산대점,한식당,음식점,4.2,457,2,PRICE_LEVEL_MODERATE,대한민국 부산광역시 금정구 금정로 70,금정구,35.230807,129.086645,OPERATIONAL,"snack_bar,meal_takeaway,korean_restaurant,restaurant,food,point_of_interest,establishment",금정구 음식점,2026-03-16
ChIJF4E_G0KRaDURKoGBbJBlv00,맥도날드 부산구서DT점,패스트푸드점,음식점,4.2,914,2,PRICE_LEVEL_MODERATE,대한민국 부산광역시 금정구 중앙대로 1957,금정구,35.2590371,129.09118569999998,OPERATIONAL,"fast_food_restaurant,restaurant,food,point_of_interest,establishment",금정구 음식점,2026-03-16
ChIJb4jEWZCTaDUREGngQKKLhCI,마파람해물찜해물탕,음식점,음식점,4.1,438,2,PRICE_LEVEL_MODERATE,대한민국 부산광역시 금정구 금강로 418,금정구,35.2448009,129.088577,OPERATIONAL,"restaurant,food,point_of_interest,establishment",금정구 음식점,2026-03-16
ChIJR202P-yTaDURDfZsFY48crA,나오리쇼쿠,일본 음식점,음식점,4.6,151,,,대한민국 부산광역시 금정구 금강로 271-14,금정구,35.2326694,129.0850967,OPERATIONAL,"japanese_restaurant,restaurant,food,point_of_interest,establishment",금정구 음식점,2026-03-16
ChIJRzra5kGTaDURwUotiKZylHY,명륜진사갈비 구서점,한식당,음식점,3.6,319,1,PRICE_LEVEL_INEXPENSIVE,대한민국 부산광역시 금정구 금정로185번길 30,금정구,35.2419324,129.0867077,OPERATIONAL,"korean_restaurant,restaurant,food,point_of_interest,establishment",금정구 음식점,2026-03-16
ChIJfWGHrqGTaDUR-3d7wctk5fY,명물토스트,음식점,음식점,4.2,242,1,PRICE_LEVEL_INEXPENSIVE,대한민국 부산광역시 금정구 부산대학로 63,금정구,35.2313997,129.0843641,OPERATIONAL,"restaurant,food,point_of_interest,establishment",금정구 음식점,2026-03-16
ChIJqT7gGgCTaDURrlRn7EylwWM,가야밀면,한식당,음식점,4.5,15,,,대한민국 부산광역시 금정구 금정로207번길 33,금정구,35.243539399999996,129.08764019999998,OPERATIONAL,"korean_restaurant,restaurant,food,point_of_interest,establishment",금정구 음식점,2026-03-16
ChIJ-ZQDM4iTaDURut3c9eIchGY,스시 심 타카이,스시/초밥집,음식점,4.7,169,,,대한민국 부산광역시 금정구 부산대학로 29,금정구,35.230790999999996,129.0880157,OPERATIONAL,"sushi_restaurant,japanese_restaurant,restaurant,food,point_of_interest,establishment",금정구 음식점,2026-03-16
ChIJnemI5tuTaDUR1M3WxYlfv4U,푸짐한횟집,일본 음식점,음식점,4.4,195,,,대한민국 부산광역시 금정구 장전동 412-10,금정구,35.2319618,129.0887137,OPERATIONAL,"japanese_restaurant,restaurant,food,point_of_interest,establishment",금정구 음식점,2026-03-16
ChIJ8wx37-yTaDURfA4vZeYZ-7Q,델라고(del Lago),이탈리아 음식점,음식점,4.3,454,,,대한민국 부산광역시 금정구 금강로 253-1,금정구,35.2307987,129.0847782,OPERATIONAL,"italian_restaurant,restaurant,food,point_of_interest,establishment",금정구 음식점,2026-03-16
ChIJt5cYVgWTaDURYG8OAcPP_AM,포맨티코 Pho Restaurant 餐厅 飲食店,베트남 음식점,음식점,4.5,326,,,대한민국 부산광역시 금정구 장전로12번길 16,금정구,35.2284174,129.0878305,OPERATIONAL,"vietnamese_restaurant,restaurant,food,point_of_interest,establishment",금정구 음식점,2026-03-16
ChIJCyR2pCKRaDUR5aFgpV_c3qY,청송맷돌순두부,한식당,음식점,4.1,351,2,PRICE_LEVEL_MODERATE,대한민국 부산광역시 금정구 청룡예전로 11,금정구,35.2741651,129.091442,OPERATIONAL,"korean_restaurant,restaurant,food,point_of_interest,establishment",금정구 음식점,2026-03-16
ChIJ1VOwED-RaDURokmNRS_YTic,구포촌국수,국수 전문점,음식점,4.3,793,1,PRICE_LEVEL_INEXPENSIVE,대한민국 부산광역시 금정구 남산동 989-13,금정구,35.2665758,129.0847463,OPERATIONAL,"noodle_shop,restaurant,food,point_of_interest,establishment",금정구 음식점,2026-03-16
ChIJPaqTmRCRaDURLLt3O1OdzY4,한다솥,한식당,음식점,3.7,6,,,대한민국 부산광역시 금정구 수림로50번길 150,금정구,35.245938300000006,129.0900366,OPERATIONAL,"korean_restaurant,restaurant,food,point_of_interest,establishment",금정구 음식점,2026-03-16
ChIJKUs4BWCRaDURN2U9M_qHBb8,푸주옥설렁탕도가니탕,한식당,음식점,3.9,752,2,PRICE_LEVEL_MODERATE,대한민국 부산광역시 금정구 금정로 248,금정구,35.2454082,129.0924993,OPERATIONAL,"korean_restaurant,restaurant,food,point_of_interest,establishment",금정구 음식점,2026-03-16
ChIJfb48iDiRaDURA4RSPzBfz9k,봉선민들레,한식당,음식점,4.6,109,,,대한민국 부산광역시,,35.267389,129.0841145,OPERATIONAL,"korean_restaurant,restaurant,food,point_of_interest,establishment",금정구 음식점,2026-03-16
ChIJQwBQwkGRaDURh-9VbgCL6CU,이랴이랴 남산점,한식당,음식점,3.9,401,2,PRICE_LEVEL_MODERATE,대한민국 부산광역시 금정구 중앙대로 1975,금정구,35.2607114,129.091106,OPERATIONAL,"parking_lot,parking,event_venue,transportation_service,service,korean_restaurant,restaurant,food,point_of_interest,establishment",금정구 음식점,2026-03-16
ChIJt4zdmkORaDURRpiHKgZXEm8,동원장수촌,한식당,음식점,4.4,79,2,PRICE_LEVEL_MODERATE,대한민국 부산광역시 금정구 구서동 654 14번지,금정구,35.2589685,129.0874318,OPERATIONAL,"korean_restaurant,restaurant,food,point_of_interest,establishment",금정구 음식점,2026-03-16
ChIJgdBd00SRaDUR-sLZ6jc5cgs,금정한정식,한식당,음식점,3.8,141,,,대한민국 부산광역시 금정구 구서제2동 금샘로 431,금정구,35.2615493,129.0840979,OPERATIONAL,"korean_restaurant,restaurant,food,point_of_interest,establishment",금정구 음식점,2026-03-16
ChIJzy4TTDuRaDURgTqtyoZVZSE,압구정한우갈비,한식 고기구이 레스토랑,음식점,3.9,498,3,PRICE_LEVEL_EXPENSIVE,대한민국 부산광역시 금정구 남산동 953-11,금정구,35.2752379,129.0857768,OPERATIONAL,"korean_barbecue_restaurant,korean_restaurant,restaurant,food,point_of_interest,establishment",금정구 음식점,2026-03-16
ChIJM_avUpmRaDURRkUQCRWvG24,할매집,한식당,음식점,4.1,417,,,대한민국 부산광역시 금정구 오륜동 106-3,금정구,35.2531576,129.1072199,OPERATIONAL,"korean_restaurant,restaurant,food,point_of_interest,establishment",금정구 음식점,2026-03-16
ChIJHfMaS16RaDURwgvffiKtIQw,소담식당,한식당,음식점,4.6,37,,,대한민국 부산광역시,,35.247358399999996,129.0897886,OPERATIONAL,"korean_restaurant,restaurant,food,point_of_interest,establishment",금정구 음식점,2026-03-16
ChIJk2HebF-RaDURZDKAVc2rlzY,전원숯불구서점,음식점,음식점,4,451,2,PRICE_LEVEL_MODERATE,대한민국 부산광역시 금정구 구서동 260-14,금정구,35.247499999999995,129.08861109999998,OPERATIONAL,"restaurant,food,point_of_interest,establishment",금정구 음식점,2026-03-16
ChIJAxGBGT6RaDURmtidjGEhQig,초심한우정,한식당,음식점,4.2,419,,,대한민국 부산광역시,,35.2677778,129.0913889,OPERATIONAL,"korean_restaurant,restaurant,food,point_of_interest,establishment",금정구 음식점,2026-03-16
ChIJF7CsjUSTaDURossqC6owLBw,타이빈,태국 음식점,음식점,4.3,653,3,PRICE_LEVEL_EXPENSIVE,대한민국 부산광역시 동래구 금강로73번길 12,동래구,35.2162994,129.0773741,OPERATIONAL,"thai_restaurant,restaurant,food,point_of_interest,establishment",금정구 음식점,2026-03-16
ChIJJRPxdwCTaDURiahSRGAb3Yg,쿠우쿠우 부산 동래점,뷔페 식당,음식점,3.4,14,,,대한민국 부산광역시 동래구 중앙대로 1523,동래구,35.2212937,129.0855784,OPERATIONAL,"buffet_restaurant,restaurant,food,point_of_interest,establishment",금정구 음식점,2026-03-16
ChIJGbn9W7qTaDUReJMSGPR3v5g,맛나분식,한식당,음식점,4.4,410,1,PRICE_LEVEL_INEXPENSIVE,대한민국 부산광역시 금정구 서동시장길 42-4,금정구,35.2164348,129.10066949999998,OPERATIONAL,"snack_bar,meal_takeaway,korean_restaurant,restaurant,food,point_of_interest,establishment",금정구 음식점,2026-03-16
ChIJJfkkfpCTaDURClC1gBCqOg8,미미루 온천점,중국 음식점,음식점,3.9,584,2,PRICE_LEVEL_MODERATE,대한민국 부산광역시 동래구 온천장로 91-1,동래구,35.2194968,129.0829728,OPERATIONAL,"chinese_restaurant,restaurant,food,point_of_interest,establishment",금정구 음식점,2026-03-16
ChIJ6cOGUJWTaDUR9t4wY-37c3c,수림식당 본점,중국 음식점,음식점,4.4,504,2,PRICE_LEVEL_MODERATE,대한민국 부산광역시 금정구 금샘로 7,금정구,35.2266604,129.0777626,OPERATIONAL,"chinese_restaurant,restaurant,food,point_of_interest,establishment",금정구 음식점,2026-03-16
ChIJ_____4KTaDURvr9prwgBWFM,깃발집 국수전골,한식당,음식점,4,254,2,PRICE_LEVEL_MODERATE,대한민국 부산광역시 동래구 온천장로107번길 10,동래구,35.2204322,129.0838637,OPERATIONAL,"korean_restaurant,restaurant,food,point_of_interest,establishment",금정구 음식점,2026-03-16
ChIJCZGAb2aTaDURyj_GJJo6jrs,쌈보보쌈,음식점,음식점,4.3,26,,,대한민국 부산광역시 동래구 금강로 118,동래구,35.219225,129.0799959,OPERATIONAL,"restaurant,food,point_of_interest,establishment",금정구 음식점,2026-03-16
ChIJXzPfQpCTaDURYfrd49H5aYg,당미옥 한우곰탕,음식점,음식점,4.4,175,1,PRICE_LEVEL_INEXPENSIVE,대한민국 부산광역시 동래구 온천동 149 8번지 1층,동래구,35.2217262,129.0833074,OPERATIONAL,"restaurant,food,point_of_interest,establishment",금정구 음식점,2026-03-16
ChIJxxxFX-eTaDURUVt2dgazKr0,맥도날드 부곡점,패스트푸드점,음식점,4,261,2,PRICE_LEVEL_MODERATE,대한민국 부산광역시 금정구 수림로 12,금정구,35.239576,129.091861,OPERATIONAL,"fast_food_restaurant,restaurant,food,point_of_interest,establishment",금정구 음식점,2026-03-16
ChIJYVUU95yRaDURXe_kxMWcg60,하동집,음식점,음식점,4,380,2,PRICE_LEVEL_MODERATE,대한민국 부산광역시 금정구 오륜동 353-6,금정구,35.2473364,129.116109,OPERATIONAL,"restaurant,food,point_of_interest,establishment",금정구 음식점,2026-03-16
ChIJ6UcmBgCTaDURZAimpneVdJ4,식당3선 금정점,한식당,음식점,4.8,8,,,대한민국 부산광역시 금정구 부곡동 225-20,금정구,35.2370406,129.0913644,OPERATIONAL,"korean_restaurant,restaurant,food,point_of_interest,establishment",금정구 음식점,2026-03-16
ChIJMezZeOaTaDURTmdpYg4sVm0,설봉돼지국밥,한식당,음식점,4.4,306,2,PRICE_LEVEL_MODERATE,대한민국 부산광역시 금정구 수림로49번길 6,금정구,35.2397695,129.08681579999998,OPERATIONAL,"korean_restaurant,restaurant,food,point_of_interest,establishment",금정구 음식점,2026-03-16
ChIJHxJFCJ2RaDURAUKwJNLLPEs,기와집,한식당,음식점,3.7,297,,,대한민국 부산광역시 금정구 오륜대로 245,금정구,35.2479143,129.1144707,OPERATIONAL,"korean_restaurant,restaurant,food,point_of_interest,establishment",금정구 음식점,2026-03-16
ChIJdQCDR-CTaDUR20s6dTUOdbI,면채움,한식당,음식점,4.3,524,2,PRICE_LEVEL_MODERATE,대한민국 부산광역시 금정구 구서동 446-3,금정구,35.244635099999996,129.09010809999998,OPERATIONAL,"korean_restaurant,restaurant,food,point_of_interest,establishment",금정구 음식점,2026-03-16
ChIJ-0TBC2CRaDURxLrXiwg9Wzo,별미청돼지국밥,음식점,음식점,3.8,658,2,PRICE_LEVEL_MODERATE,대한민국 부산광역시 금정구 금정로 249 금정빌딩,금정구,35.2459017,129.092153,OPERATIONAL,"restaurant,food,point_of_interest,establishment",금정구 음식점,2026-03-16
ChIJJ67ndwOTaDURSl7VoJflV5I,60계치킨 부산구서점,테이크아웃 전문 레스토랑,음식점,4.8,8,,,대한민국 부산광역시 금정구 수림로72번길 136,금정구,35.245363,129.087749,OPERATIONAL,"meal_takeaway,restaurant,food,point_of_interest,establishment",금정구 음식점,2026-03-16
ChIJJd9ISOCTaDURYQ0EmuntRtQ,고기굽는남자 구서점,숯불구이/바베큐전문점,음식점,4.5,240,2,PRICE_LEVEL_MODERATE,대한민국 부산광역시 금정구 구서동 446-6,금정구,35.2446837,129.08982419999998,OPERATIONAL,"barbecue_restaurant,restaurant,food,point_of_interest,establishment",금정구 음식점,2026-03-16
ChIJiTaQnu-TaDURDeU4rMZWMMU,뉴숯불통닭,닭요리전문점,음식점,4.4,108,1,PRICE_LEVEL_INEXPENSIVE,대한민국 부산광역시 금정구 장전제1동 134-13,금정구,35.2377482,129.0837594,OPERATIONAL,"chicken_restaurant,meal_takeaway,restaurant,food,point_of_interest,establishment",금정구 음식점,2026-03-16
ChIJo9uzr_eTaDURgCZsfh_b1Gc,버거킹 부산대점,햄버거 전문점,음식점,4.3,473,2,PRICE_LEVEL_MODERATE,대한민국 부산광역시 금정구 금정로 66,금정구,35.230478,129.0866165,OPERATIONAL,"hamburger_restaurant,american_restaurant,restaurant,food,point_of_interest,establishment",금정구 음식점,2026-03-16
ChIJVRDN7AeRaDURSG6Myg9tUCw,단팥빵가게 콩방,카페,카페,4.4,188,,,대한민국 부산광역시 금정구 선두구동 상현로 66,금정구,35.266605999999996,129.111906,OPERATIONAL,"cafe,coffee_shop,bakery,restaurant,food_store,food,point_of_interest,store,establishment",금정구 음식점,2026-03-16
ChIJbx3M7kKRaDURWcYe-3EdcaA,서경집,한식당,음식점,4.5,48,,,대한민국 부산광역시 금정구 구서동 167-96,금정구,35.256586999999996,129.090125,OPERATIONAL,"korean_restaurant,restaurant,food,point_of_interest,establishment",금정구 음식점,2026-03-16
ChIJwecGFcuRaDURJp5x1zjGfWo,구세리1990,서양음식전문점,음식점,4.2,57,,,대한민국 부산광역시 금정구 구서제2동 246-17,금정구,35.2517456,129.0902604,OPERATIONAL,"western_restaurant,restaurant,food,point_of_interest,establishment",금정구 음식점,2026-03-16
ChIJm7MMAz6RaDURKzfCDDHtm1E,태평양횟집,일본 음식점,음식점,3.7,252,2,PRICE_LEVEL_MODERATE,대한민국 부산광역시 금정구 남산동 남산역 7번 출구 103-1 305m,금정구,35.2681367,129.09099440000003,OPERATIONAL,"japanese_restaurant,restaurant,food,point_of_interest,establishment",금정구 음식점,2026-03-16
ChIJ5-i5wOORaDUReoOQYMXLVMA,"나유타의 부엌 (비건 식당, 클라스) Nayuta's Kitchen (Vegan restaurant and workshop)",채식 전문식당,음식점,5,3,,,대한민국 부산광역시 금정구 오륜대로 262 황토건물,금정구,35.2476352,129.11645679999998,OPERATIONAL,"vegetarian_restaurant,restaurant,food,point_of_interest,establishment",금정구 음식점,2026-03-16
ChIJjwEdjVGRaDURBWl_K0KUxAk,금빛코다리어울림,음식점,음식점,4.3,33,,,대한민국 부산광역시 금정구 남산로 10,금정구,35.267281,129.0912572,OPERATIONAL,"restaurant,food,point_of_interest,establishment",금정구 음식점,2026-03-16
ChIJ3WfeY2eRaDURlI__5QWQOB0,풍천황금장어구서점,일본 음식점,음식점,4.3,147,,,대한민국 부산광역시 금정구 금단로 13,금정구,35.251162,129.0921622,OPERATIONAL,"japanese_restaurant,restaurant,food,point_of_interest,establishment",금정구 음식점,2026-03-16
ChIJKbDt9D-RaDURbDDkIPjNB1M,남산핏자,피자 전문점,음식점,4.7,38,,,대한민국 부산광역시 금정구 남산동 120-8,금정구,35.2642854,129.0912069,OPERATIONAL,"pizza_restaurant,restaurant,food,point_of_interest,establishment",금정구 음식점,2026-03-16
ChIJ1_0_rCSRaDURNIjvoP88gfc,삼환축산,숯불구이/바베큐전문점,음식점,4.5,314,1,PRICE_LEVEL_INEXPENSIVE,대한민국 부산광역시 금정구 구서동 금강로 590,금정구,35.2600062,129.087905,OPERATIONAL,"barbecue_restaurant,restaurant,food,point_of_interest,establishment",금정구 음식점,2026-03-16
ChIJUZG3MD6RaDURc9DmYcR99fU,가야할매 밀면전문점,한식당,음식점,4.3,95,,,대한민국 부산광역시,,35.266993,129.09096929999998,OPERATIONAL,"korean_restaurant,restaurant,food,point_of_interest,establishment",금정구 음식점,2026-03-16
ChIJcwIhoGqRaDURC1gPoSNrYcQ,버거킹 부산외대점,햄버거 전문점,음식점,4.4,55,,,대한민국 부산광역시 금정구 금샘로 478,금정구,35.2658728,129.0856425,OPERATIONAL,"hamburger_restaurant,american_restaurant,restaurant,food,point_of_interest,establishment",금정구 음식점,2026-03-16
ChIJc7Ri2ESRaDUR0LPlA3CmrzE,Geumsaemmaru,음식점,음식점,4.4,52,,,대한민국 부산광역시 금정구 금샘로 ３９３−２,금정구,35.25815490000001,129.0841097,OPERATIONAL,"restaurant,food,point_of_interest,establishment",금정구 음식점,2026-03-16
ChIJCzqJKFuRaDURNujEPztPUDs,박달집,음식점,음식점,4.2,172,2,PRICE_LEVEL_MODERATE,대한민국 부산광역시 금정구 구서제2동 1026-8,금정구,35.256721999999996,129.0842425,OPERATIONAL,"restaurant,food,point_of_interest,establishment",금정구 음식점,2026-03-16
